"id","name","latitude","longitude","population"
"ddcacf3d-ce97-4e61-9cdf-96a2fb25c2c2","Таоюань","24.988889","121.311111","500000"
"b07d0630-fc93-46b0-8328-a2b242c2edf2","Илань","24.75","121.75","150000"
"5040f407-d770-4d71-957b-4d52b25b124c","Артигас","-30.415987","-56.48602","41909"
"a7f5fd56-3550-4be7-a600-fceae45db10c","Бальтасар-Брум","-30.730025","-57.319974","2517"
"9174cf79-e724-4909-9ffa-fefd4e16b201","Транкерас","-31.200022","-55.749967","7474"
"1b39063e-5187-4ce2-baf5-75f88609ba88","Такуарембо","-31.709965","-55.980005","54277"
"fb464b62-2d24-4a51-9cb2-99f72d6c3c45","Пасо-де-лос-Торос","-32.810001","-56.51005","13221"
"71100e5f-9c3e-488e-b6cc-15aac5d9ec82","Вергара","-32.929994","-53.949999","3998"
"b5920b88-b546-481b-8535-b7e413503323","Трейнта-и-Трес","-33.230027","-54.380025","27684"
"cbaa8591-fe48-4d79-aa03-88cf2acab9b1","Санта-Лусия","-34.470003","-56.399979","16438"
"84b8434a-43e7-48f9-9371-8ce18b61a239","Хосе-Батлье-и-Ордоньес","-33.470013","-55.120005","2438"
"69f15fff-43b4-40c4-98c3-5de9ec42352b","Минас","-34.370009","-55.230025","41180"
"8d9e46ce-940e-4a07-b748-78baaa1a8a22","Мальдонадо","-34.910028","-54.959989","55478"
"f3094778-d971-4835-aeef-868b6dfd6225","Пунта-дель-Эсте","-34.969973","-54.94999","159000"
"95e07414-4f06-4f24-8dca-6c306b381be8","Айгуа","-34.199994","-54.750002","2692"
"0aee35e3-76ac-4de1-8d67-ea819734fb43","Ла-Палома","-34.669991","-54.169986","3230"
"9284728d-b9bc-483b-876a-d4a5bbcea2b7","Фэрибо","44.290487","-93.268013","25376"
"453228eb-24eb-47d5-bada-694cab748471","Манкейто","44.163621","-93.999157","56325"
"e239f9fb-e87d-456e-a47b-b90d93459d25","Альберт-Ли","43.647787","-93.368704","20522"
"f47ba32f-338e-4bf1-99a6-762ec9e7528a","Уилмар","45.121883","-95.043305","18473"
"8f677a0c-58ba-4541-8115-b2fb9c081da3","Брейнерд","46.358009","-94.20085","28187"
"c85f37a4-fabf-4ac2-aa72-455d7b4014da","Крукстон","47.773762","-96.607731","8653"
"a2dcdec0-ce0a-4bb8-b265-cad9b6a58ee7","Хардин","45.731768","-107.612486","4448"
"8afbfbf8-3bcd-43d5-80a3-f36dbb10c6ae","Глендайв","47.108583","-104.710493","5856"
"4155f503-6178-4e5e-83ee-e18954d2fa6b","Диллон","45.215676","-112.683985","4463"
"94cc95ce-8e76-43b8-a188-359304184e30","Полсон","47.688005","-114.156686","5326"
"6d74cf1f-e239-47c1-96fc-9f81cddfecdf","Девилс-Лейк","48.112217","-98.859687","7813"
"fa17dd97-0447-4c78-aa76-90e4aeb923c4","Бёрли","42.535813","-113.791876","14042"
"e4cab79b-b899-4714-b584-53c53bea2075","Уоллэйс","47.47422","-115.926888","1028"
"0d151d54-6291-489f-af0a-8186f1fb50a0","Кенневик","46.211377","-119.136098","102504"
"e8062bbb-111f-4e65-aa63-0ece8f392b54","Сентрейлия","46.716411","-122.952971","18880"
"ee19152b-7cd1-4616-ba9a-9f03fc5416b0","Глендейл","33.581941","-112.195824","500000"
"b6f2846d-e2cd-4bcc-ad1a-b6b62407eca4","Саффорд","32.833821","-109.70688","10668"
"fbad16fc-ee04-4524-8236-2d82be132bce","Каса-Гранде","32.879374","-111.756626","44655"
"c26d331b-1208-4a38-a005-819d60c05569","Меса","33.423915","-111.736084","1085394"
"a65f3c39-b160-4700-bd45-23a8156b1a13","Лейк-Хавасу-Сити","34.498294","-114.308279","56133"
"bb37600b-a684-419b-b6d8-5f7e7a97d2af","Беркли","37.873901","-122.271152","496356"
"68633902-0cf7-48c8-a098-14c50827c11c","Нашенал-Сити","32.671945","-117.098005","150000"
"a8fff694-9bf8-4036-85e8-1d6388b71571","Мендосино","39.307767","-123.799431","548"
"1034179b-0a63-47f4-83d3-a052f95d27a6","Пасо-Роблс","35.626597","-120.689982","27157"
"8db62c87-59ca-4bfa-a5e1-477ff74bb0ba","Риверсайд","33.941945","-117.398039","297554"
"6b1d358e-ed0a-4f00-9561-6fb2316026d0","Делано","35.761937","-119.243068","44757"
"ae17722b-42d7-4aad-938d-fd4dc7da21a9","Сан-Матео","37.556918","-122.313062","626406"
"567c2f87-ad1e-4118-8478-413755c24739","Вальехо","38.111949","-122.258052","146289"
"f6b065b9-705f-40ac-a772-f76532178096","Гленвуд-Спрингс","39.54659","-107.3247","14004"
"6b404e30-4969-4f84-84bf-aa8a01d82511","Орора","39.695857","-104.808497","587540"
"c37c240e-1303-4cd8-ab07-5cfcc4a33ac9","Грили","40.419198","-104.739974","125410"
"e927eb6d-a8ef-4c0c-92e8-e0c1f24133d1","Тонопа","38.06699","-117.228979","3261"
"37de51ce-ff47-4072-a3bd-b769859c9ed5","Деминг","32.261092","-107.755785","16298"
"f2cc50b8-b661-4ead-8aeb-0d9049557ddf","Трут-ор-Консекуэнсес","33.133596","-107.252896","7121"
"fb718657-e4fb-4b18-b002-57779a04ee87","Лас-Вегас","35.597012","-105.222503","16998"
"54bb3364-4d50-49dd-babc-9371e938534e","Фармингтон","36.754151","-108.186094","43278"
"1c1a25a6-5066-4af7-863e-8b2ec5d2820c","Спрингфилд","44.051948","-122.978034","56032"
"e4faeb7a-335d-48b3-87b7-195562e76e8b","Тилламук","45.455247","-123.842503","8145"
"73d20bd0-f281-4184-9416-e7742ee24ce3","Онтарио","44.026627","-116.96189","12187"
"5cfaf344-7229-4a54-a7e2-b2e7a97fb2e7","Ла-Гранд","45.324687","-118.086601","15004"
"47f55375-10cb-4a99-a903-d27335f88afa","Ричфилд","38.772477","-112.083298","7621"
"b4cc055c-f8bf-46d0-8454-f748049aef1d","Нифай","39.710275","-111.835484","5117"
"c6960f27-a0d5-4620-bb06-88c3f85e4416","Ландер","42.833004","-108.732599","6821"
"654c98f5-dbbb-4d70-9721-63cf1c2442ac","Пауэлл","44.758675","-108.758437","6895"
"bf7be3b9-4a74-416e-a667-3f030681975d","Парагулд","36.057087","-90.502884","23450"
"69cfeb1f-e592-4e98-80b2-87f7a0446230","Айова-Сити","41.661086","-91.529979","98516"
"18c09893-45f6-45a4-9597-492b28ab7af5","Оттумва","41.012883","-92.414809","25982"
"35ca956f-9edb-48c5-a05b-6901874de846","Спенсер","43.145285","-95.147175","11203"
"67f30d99-29a8-46a4-a3ad-34b64fa512fc","Форт-Додж","42.506823","-94.180257","26879"
"824834fd-d912-400f-adac-17a67b4793b0","Хатчинсон","38.065492","-97.923491","44477"
"d924624c-7621-44a6-aae4-75be4540f075","Канзас-Сити","39.113581","-94.630146","501577"
"248130c3-cbe3-466f-a2db-300f34dae187","Лоуренс","38.959752","-95.25523","92726"
"8f91dbda-6863-4545-9cc0-1c2cdc204296","Гарден-Сити","37.975213","-100.864087","28564"
"cede3d53-2fdd-4a50-bfda-ff9c2f790153","Манхэттен","39.194028","-96.592435","56949"
"d724e9fd-3685-456a-bba4-620ec623b1c9","Хейс","38.87937","-99.322191","21394"
"5c5b24a2-c1ac-4249-8edf-989e917ccd06","Гудленд","39.348488","-101.711037","4378"
"6cd52ea8-b36f-4b2e-a760-137ad514862e","Индепенденс","39.091114","-94.415281","148102"
"9f3fd970-eba0-43a7-be53-fdea59db3dd9","Керксвилл","40.193682","-92.582809","19193"
"f336c750-35b5-4693-80d2-f0c4f06cc942","Карни","40.700706","-99.081146","31553"
"b8197f28-d4ee-4878-bf4c-a6fd0e02e2d7","Гранд-Айленд","40.922268","-98.357986","45651"
"d59c9ac7-8c13-49e8-a726-997785c645ad","Аллайанс","42.101395","-102.870192","8344"
"731d6ef0-4059-4388-805b-050f82192241","Бартлсвилл","36.7472","-95.980586","34610"
"4259a361-500f-43fe-bcfc-de69d80a60c2","Инид","36.395542","-97.878093","46138"
"aab96d51-bf4d-4805-8933-0a6ae0f29a9f","Ардмор","34.181078","-97.129405","24960"
"ad310675-0379-47ff-9714-f9bf0c1ebfd7","Макалестер","34.932996","-95.765974","21668"
"897d7fba-679a-4adb-aaf1-aeee726eb1af","Стиллуотер","36.135351","-97.068298","47667"
"1ca76ef7-14ea-42c6-9c64-a72488ff5a12","Лидс","44.350845","-103.76577","2874"
"7ae150b6-281f-4b17-a060-969d0031f137","Слайдел","30.27496","-89.781094","84239"
"f69fd2dd-2d7d-4e10-9278-cd7ed948f153","Лейк-Чарльз","30.226384","-93.217189","83821"
"cd8062cc-ad86-46c3-a9cb-031fd6dcdacf","Метери","29.983866","-90.152777","394206"
"bc8250ed-dbac-49d0-a87e-bf8a6aab487c","Нью-Иберия","30.003581","-91.818308","37540"
"fad7f2d9-2513-452c-b989-a13a0c8d16e2","Брайан","30.674186","-96.369684","146692"
"c8a306b0-5ed9-4011-91ff-56b9b622857b","Сан-Маркос","29.883071","-97.941113","70371"
"044a3770-a9da-438c-bde4-44d57ba3b6da","Лонгвью","32.500534","-94.740274","75920"
"7f6d4e69-a8a9-42e0-a3b3-b658f97196c0","Мак-Аллен","26.203038","-98.229725","364004"
"05048715-f523-4ae7-be71-f1c50ef940c7","Харлинген","26.19756","-97.690198","110339"
"421e750e-7ef0-4349-aad1-54df82c0747e","Алис","27.750463","-98.070485","22655"
"363d1185-f0d5-4f6c-91c5-c4e86a062720","Нью-Браунфелс","29.697811","-98.126321","45840"
"b7045d81-26f9-4add-9914-eb47531d1285","Клиберн","32.351525","-97.39249","35545"
"7f26cf88-14c3-4a3c-8083-0285df6c147d","Браунвуд","31.707895","-98.982315","20988"
"66ec0d6f-489d-433d-ba02-2ea3cb57736c","Алпайн","30.360717","-103.665001","6587"
"5d1afe59-b4ef-421c-9d7a-be6de79bae0d","Ван-Хорн","31.042484","-104.832242","2175"
"ae65fe8b-b6f2-44cd-b969-bf1ac0bbef5c","Биг-Спринг","32.243186","-101.475186","24122"
"118e1271-e405-4ba5-8ce0-8857d97356d3","Вернон","34.151054","-99.290384","11660"
"0085cff1-e366-4e2e-92ae-786f5277b370","Чилдресс","34.424887","-100.21392","6557"
"9fa56125-a994-4eeb-80e9-c3e807dff18c","Херфорд","34.821917","-102.398592","15675"
"92115aa3-a9d9-4557-8813-41dc5de1ea13","Далхарт","36.060808","-102.518611","7088"
"9ab436bd-7973-4b1e-a573-fea365d64d02","Тексас-Сити","29.410878","-94.962767","69914"
"25642bde-e24e-405d-89ed-4b39339da104","Пасадина","29.660863","-95.147743","628492"
"825fcf24-1349-4366-a7e8-89a4e837c872","Бейтаун","29.755844","-94.967728","86034"
"6fbb7c47-1d15-4660-bddc-d847f4279045","Арлингтон","32.684761","-97.020239","724777"
"254a56db-13ba-4108-91fe-3fa453d91932","Гуасдуалито","7.239983","-70.739982","30860"
"ab1bed29-e2fb-4093-8e6d-d6537d14933d","Баринас","8.599978","-70.250012","284289"
"76981875-c1aa-4637-a839-f8e8158c3818","Валера","9.31996","-70.620015","191167"
"73070b28-850b-4c8d-8904-c259c9f21d04","Кабимас","10.429995","-71.449991","441094"
"6ee151c5-a455-4f8a-989c-0ded64f2bf8a","Карора","10.189984","-70.079997","149711"
"d15d20db-ac31-4d7d-918a-14fe3c7304f4","Гуанаре","9.049976","-69.750017","151642"
"a4f6eda4-8fe0-4812-92aa-89e4a6d3bba5","Нью-Лондон","41.355524","-72.100028","96178"
"50f126d2-21da-4bb7-996f-f3c34b13796a","Стамфорд","41.053346","-73.539191","746920"
"516e1fd8-17c9-42ba-a39e-581a1f2316c4","Уотербери","41.550008","-73.050022","174236"
"e88dbf0a-d9d9-4de9-bd63-83e21fc9b7e9","Нью-Бедфорд","41.656125","-70.944698","136082"
"ec0dc517-c2c7-4a1a-80ed-05b22a274714","Спрингфилд","42.120025","-72.579999","421780"
"c28a241d-cbc4-49a7-a20c-77eded280f35","Сейлем","42.522499","-70.883092","335509"
"712f48db-3900-4c5a-9cfe-30a6c41ff198","Питсфилд","42.448196","-73.259828","46230"
"6e039b1d-f4c2-4eb3-ad26-1690a5e4bef9","Монтпилиер","44.259972","-72.575813","8538"
"0ff3dfbf-14b3-47df-8d46-8ebde8c7cc7e","Оберн","32.609701","-85.48084","73929"
"789c4166-415f-4559-b44c-757c0f136564","Флоренс","34.799696","-87.677243","45349"
"fadb9683-162d-4c84-966b-a1cca28f55a8","Уинтер-Хейвен","28.021919","-81.733006","108932"
"26967056-dec1-4fdb-ae14-d2a4b9c65614","Мелборн","28.08331","-80.60832","265414"
"35dafe62-0ced-4992-a81e-4706bf261935","Хомстед","25.468302","-80.477786","85967"
"96524bae-f829-4b35-aca5-44c53db50430","Сэнфорд","28.78996","-81.279985","333460"
"e3ed6220-5697-4266-973c-760fb18183cc","Майами-Бич","25.80992","-80.131781","407750"
"d57606a2-a0a3-48b3-95bf-3df4cacc15b1","Корал-Спрингс","26.270837","-80.270822","250000"
"6b86be7b-f85b-4eb3-b46d-2450a25e662a","Порт-Шарлотт","27.000043","-82.105697","64279"
"13cdcce1-86fa-4d4f-af18-db6f20a9f549","Спринг-Хилл","28.478945","-82.547711","114697"
"d4a45905-7942-4b8a-af71-dd15431f5f81","Палм-Кост","29.538002","-81.223296","48577"
"e5e2a494-9f12-407e-961c-948973e3fa63","Палатка","29.647685","-81.651306","21452"
"1a3232a3-19a0-4fd3-81b6-e75b4943b79f","Лизбург","28.810501","-81.883333","49574"
"837dc227-4c88-40b8-ab57-cc799e2aa908","Лейк-Сити","30.189719","-82.639747","29395"
"e65caa27-4419-4b73-be4c-944cdf4e9586","Крествью","30.754207","-86.572608","22403"
"fa8e2548-bf5e-4fde-a505-92aa46d53e42","Панама-Сити","30.15861","-85.655273","100072"
"1c4bed44-19b5-4a71-a6f2-a89adfbeb85c","Долтон","34.769724","-84.970302","58557"
"d32b56fb-d4d3-41b6-a35e-e2606fed6c87","Мариетта","33.955613","-84.543248","61360"
"d5459e01-fab2-4f1e-aaa3-5889ccab224c","Уэйкросс","31.213817","-82.354906","19824"
"bb26cc17-22ac-4a42-a1fb-0c9a84dfeab2","Лаграндж","33.036471","-85.031875","31776"
"87bfe59b-ac51-456f-8047-0e242dedab98","Саутхейвен","34.968911","-90.003458","121268"
"1afa3f0e-6bbe-43a6-8deb-754eea76f2ae","Меридиан","32.364186","-88.703614","42290"
"23bdd4b3-c68f-4d63-a59e-be63192edf09","Лорел","31.697379","-89.139273","28841"
"6525d765-01ae-4a09-aa94-f4c171f081b4","Спартанберг","34.949429","-81.932271","124126"
"aa9844b9-63c3-42f2-a9e7-fe8b2f7e1d36","Оринджберг","33.496804","-80.862233","35472"
"d5da28e5-2dc9-4200-93ed-9f7e0af47948","Гейлсберг","40.947771","-90.371084","32094"
"8eb333f8-b939-4bab-bc2d-a58a7f82d30a","Джолиет","41.529983","-88.106674","578460"
"af594ec6-7edd-45dc-9882-862215cb6330","Кейп-Жирардо","37.305822","-89.518087","40427"
"0363f584-a158-4d3c-a376-0136d0f25476","Рокфорд","42.269705","-89.06969","255978"
"8db30385-d0ab-424b-a615-0594e9cad448","Эванстон","42.048349","-87.699955","350000"
"e83469af-da33-493f-a4f8-404708c0be05","Рок-Айленд","41.493396","-90.534614","165728"
"f7023400-54bb-4a2b-a20d-ce59c23275f6","Элджин","42.039461","-88.289919","389514"
"e1d5444c-4e27-46bc-b038-21d5cef79024","Ричмонд","39.828898","-84.890281","44400"
"4adff443-7a4b-4b3e-9945-563664cea906","Терре-Хот","39.466647","-87.413874","73236"
"3804d4b4-48b7-44bb-8e5c-0960a535e562","Лафейетт","40.417209","-86.878248","133977"
"f6f59693-3136-4834-8bc3-5165797ab959","Марион","40.558337","-85.659175","38297"
"47ac6193-d405-41b1-af53-85bbba74f25b","Саут-Бенд","41.683307","-86.250017","239822"
"ba0a7889-6f65-49a6-a11f-37dda03b8014","Нью-Олбани","38.310877","-85.821284","120625"
"f907ea55-c0da-48f1-a7f0-cedbeb4d3723","Элкхарт","41.682945","-85.968794","149190"
"aa85c02b-ddf8-4181-91ea-9ea5f175218c","Хопкинсвилл","36.865488","-87.488624","35604"
"67fe5679-f1a9-4f6d-9398-1b4ec3a40a4e","Лондон","37.128882","-84.083354","7844"
"1a060b24-1520-4ca7-8cd4-d964a260fdf3","Мэдисонвилл","37.332746","-87.502215","22294"
"9c89b6be-8436-4987-a70b-ba4012b7be7e","Роки-Маунт","35.937999","-77.790766","58361"
"308ecc60-14a3-419c-90db-4baa56ced152","Солсбери","35.67078","-80.474478","41352"
"e5cacf74-fcf5-43a2-82e3-b3a5e8b743dc","Дарем","35.999959","-78.92","309495"
"6608c558-4c4c-4f6a-a415-b5b2e11978bd","Ламбертон","34.6272","-79.011906","32785"
"563cb901-0f79-4ff4-959d-669a65c41d2a","Занесвилл","39.940287","-82.013325","40052"
"a735be25-cbfc-403a-a182-de83a6971f40","Мэнсфилд","40.758325","-82.515542","77768"
"133f957a-bd0a-444b-927f-c3498dd462f7","Боулинг-Грин","41.374747","-83.65139","37080"
"fca66ec3-32ff-4132-8fbf-de7a00f33b85","Спрингфилд","39.920004","-83.799986","84576"
"7024d102-2a11-4fb3-9383-26189a477c8f","Ланкастер","39.719215","-82.605304","48829"
"3447bc27-eaed-40a5-9da7-170fe3ce7e03","Джонсон-Сити","36.313325","-82.353614","77538"
"4afc2ca3-2717-484d-be9f-ba1e0274c2e3","Кингспорт","36.548323","-82.561948","57467"
"ad2023df-f9db-43b8-9dbf-cafb8c40e452","Колумбия","35.614995","-87.035267","116091"
"da6c8b0f-90b3-4903-ab95-e416e52d06a9","Бартлетт","35.2229","-89.84109","286423"
"5c038fda-2fc2-4b25-9ae4-736a800af04c","Блэксберг","37.229419","-80.414198","67508"
"863cba58-dc19-4a31-ba5c-db8d2c25d508","Харрисонбург","38.449422","-78.869176","42538"
"5eb970e1-26df-42b9-8e8b-f0a5e5579f35","Питерсберг","37.227765","-77.402237","118577"
"f27b9b73-92e5-41f1-b716-14287440aed6","Хамптон","37.030025","-76.34995","366766"
"237e836d-5739-40d9-92ba-9544df5ceef3","Шебойган","43.75083","-87.714424","53705"
"bb2bad58-2460-4863-b17e-5cc88316f0a4","Уокешо","43.01165","-88.231369","249912"
"723d2b61-74b9-4bbc-923e-a8adf66d4a64","Ла-Кросс","43.801369","-91.239429","87381"
"bd676963-06b1-416b-90dd-d5cb58d8b03c","О-Клэр","44.811359","-91.498353","79740"
"2f14f81d-e64b-4791-bd9f-735ab46cece9","Тома","43.985053","-90.503892","12997"
"3b349706-3af6-4c77-b8fe-c0d32010aad0","Джейнсвилл","42.682626","-89.021579","69278"
"2b4bed04-c5ce-45bc-95b8-a25f2a8ce8a4","Аплтон","44.268679","-88.400506","203665"
"abf4b3e9-e6e9-4ce3-82cd-4d9f536aae7a","Паркерсберг","39.266659","-81.561647","61935"
"c1be5eb3-a73b-486e-9382-71800b98f7d9","Уайт-Салфер-Спрингс","37.79388","-80.303481","2407"
"b6fdb73a-c6f0-47bf-9057-490b16b9c2ca","Кларксберг","39.283273","-80.336916","28773"
"0cfcb4ba-0671-487f-bd46-e2349d9e2054","Довер","39.158087","-75.524703","76039"
"f91d3285-d086-4e95-92fa-3b511763c900","Сент-Чарльз","38.603056","-76.938932","69208"
"4a0e7b9d-0e0a-4781-9b92-46ca3e018978","Аннаполис","38.97833","-76.492499","81300"
"64ef04f2-91cf-411b-b1e3-72094443d6b6","Хейгерстаун","39.641649","-77.72028","79662"
"63c9070f-3268-42a3-beff-d4c6d95b847e","Патерсон","40.919995","-74.170005","151205"
"589c0629-aac4-42b7-a39d-5a19c108e4aa","Саратога-Спрингс","43.082963","-73.785016","55793"
"9f7e209e-40b0-4055-bcde-4aefd6125b81","Покипси","41.700231","-73.921416","170996"
"1b65efa9-6df6-47e9-be67-d1556d049028","Платсберг","44.694984","-73.457982","29238"
"94639827-8469-4f5e-ba1d-415a2faa79c3","Бивер-Фолс","40.751943","-80.319423","120125"
"d9566fce-ed0d-4e61-b9a9-1774908a2675","Алтуна","40.518598","-78.394967","78607"
"b31949de-b24c-40ba-a11c-a988ac0136f8","Уильямспорт","41.241086","-77.001383","56877"
"cde78286-bc56-4e6a-b1cb-926156e1bc85","Ланкастер","40.037775","-76.305766","209489"
"3e229962-ba90-431a-b51d-c3c8ed47a902","Аллентаун","40.599988","-75.500028","496442"
"5f5baf6d-e5a2-4526-8552-2003db762938","Пуэрто-ла-Крус","10.169959","-64.680016","546616"
"97576973-7f1a-4333-af57-fea87c2dea18","Анако","9.440004","-64.460004","117596"
"bae8990c-4478-48e4-9c96-b9a73855b59b","Лос-Текес","10.41997","-67.020028","303470"
"f1a45230-9a2b-47a8-a6db-84c4c48ed92a","Валье-де-Ла-Паскуа","9.209992","-66.019986","89080"
"4343a24e-a7cd-4d22-bcaf-ace5cd7d7f81","Окумаре-дель-Туй","10.119988","-66.779991","166072"
"e4dc4dcf-75c1-4e5f-84cf-d91dab3b14c5","Карупано","10.670006","-63.230001","126293"
"84428a7b-14f6-41c3-ae6a-8197582daf78","Сан-Фернандо","10.280462","-61.459377","166039"
"f8d9fd13-2dec-4162-b6b6-16eabdf185b6","Браунсвег","5.020015","-55.169951","4582"
"528fe82d-4d33-487a-89af-050b402d5d41","Мунго","5.630004","-54.409997","7766"
"3a8713a3-814c-430c-8886-60069b725270","Ньив-Амстердам","5.909987","-55.070008","4935"
"bc6d5124-3c4f-4e61-955d-00ce218eea4b","Уотервилл","44.551892","-69.645785","25152"
"76b540b5-bde0-4a96-bf08-c496ebaca625","Калис","45.165989","-67.242392","3306"
"8578477b-5eae-44fe-a504-080732983170","Хоултон","46.125517","-67.83972","6703"
"270f1fc7-9a42-4422-a789-b7ad2c7d7c41","Бентон-Харбор","42.11664","-86.454191","58382"
"05a55788-63b9-4c3b-8d16-5b06576973cf","Батл-Крик","42.321098","-85.179747","70820"
"224719bb-9bea-49ca-87fc-0b3fe967cd51","Бей-Сити","43.594457","-83.888895","68549"
"f9bbe221-56e2-41d0-8226-1aeb7a0b1a5a","Алпина","45.061602","-83.432696","18330"
"7dc94a17-170b-4f0b-b8bc-743b68cf470a","Айрон-Маунтин","45.82246","-88.064093","16183"
"0c19179e-9026-4706-9256-a23467ba8108","Айронвуд","46.455807","-90.159391","7064"
"daa8a7dc-ca19-4d07-af3f-cd0b7ee1330e","Марбелья","36.51662","-4.88333","186131"
"b856f722-40a8-431f-bd48-a29bfa396ef4","Линарес","38.08332","-3.633355","59761"
"247456f1-6be0-4825-beb4-9552f66cd8cf","Альхесирас","36.126712","-5.46653","111027"
"fc9193ab-ca2b-40a4-bab4-a108941d9388","Леон","42.579971","-5.570007","136227"
"5c76c56b-c445-4bc8-adc7-96f2cf99e3dd","Матаро","41.539957","2.450021","183293"
"a86ec9f3-b0e8-4852-a422-c931f0125caf","Латакия","35.539987","35.779976","539147"
"a3e88caf-55de-4e1d-af0a-548af86d0e61","Эс-Саура","35.836661","38.548076","87880"
"21b85d77-94a0-4bad-bf52-3660755f0094","Аазаз","36.588786","37.044085","31534"
"920d9ccd-8eea-4ff2-b228-b73c2050f348","Манбидж","36.526645","37.956329","120169"
"d949e0da-839d-419e-ab20-aa1fa70868f5","Идлиб","35.929705","36.631655","128840"
"f53a6424-4861-41dd-8cb7-004707665d67","Эль-Камышлы","37.030025","41.229979","104107"
"ad575752-27f8-4da4-8682-a24983e73d36","Эль-Хасака","36.483289","40.750009","128100"
"72f6f2c8-4fae-4b41-ae55-ecfd09a14715","Дума","33.583336","36.39999","496145"
"9806e1f1-2fe8-4167-a2c7-763d56796a3e","Дамар","14.557469","44.387461","191259"
"9c0c585c-1d1e-4490-8fd5-6f3db7f93c27","Ибб","13.975851","44.170885","234837"
"082dfac8-cce8-4f5d-b2bf-b4fbd28aa394","Кур","46.85002","9.50003","38293"
"687c0006-63ca-4000-96f2-871707932928","Санд-Пойнт","55.339709","-160.497191","667"
"a79d2e57-6f45-47b1-826d-a79c8fd0fbd6","Хайдабург","55.21398","-132.800639","382"
"9a6ea220-432f-465e-b1f2-adfde0a26da6","Мекорьюк","60.388647","-166.189937","99"
"043f67d9-3e7d-4985-ac1a-6d70c1994247","Аткасук","70.46938","-157.395778","201"
"5bb8c50d-55a6-494c-ac98-b12a0502be06","Порт-Хейден","56.949094","-158.626892","102"
"e54fd84d-2749-44ad-9328-8ef9466d8690","Перривилл","55.918614","-159.151149","113"
"6698cb78-eb10-4fcc-89ed-b7d734482c23","Диллинхэм","59.05656","-158.480312","2488"
"1d904662-0979-41f9-a3ee-cfbe689cdf69","Гудньюс-Бей","59.120993","-161.58713","230"
"5b225b1f-9ef4-4aee-8f04-d16b2f1df1fd","Найек","61.004143","-159.940481","100"
"e927ff79-33d4-44db-8aae-1c9a4d56c7ba","Тунунак","60.585487","-165.255789","352"
"9c0001b8-e122-49eb-b61b-e62ce398389b","Маунтин-Виллидж","62.085524","-163.729009","755"
"70be4140-c778-4c90-b126-1ec7361b4bbb","Эммонак","62.776981","-164.522992","100"
"f9486e5a-30d8-4e1e-bdaa-8c4ebef9c9c8","Калтаг","64.327196","-158.721899","190"
"a3e65180-7b91-4962-9d75-576ac45d5a9b","Теллер","65.263599","-166.360786","83"
"a1670893-b5ca-41b7-931c-853c98e26e6b","Коюкук","64.880289","-157.70085","101"
"06fb1a19-a968-4f3e-b353-0e4d532ce166","Кобук","66.907246","-156.880977","151"
"8d4d3ad1-0e56-4e94-8890-8e4271154cce","Селавик","66.603879","-160.009391","832"
"8b594ea2-ec69-4a9d-9c86-462274a7a3fd","Талкитна","62.323779","-150.109427","1078"
"124de9ec-981b-4cfe-8c36-8ef42c692cb3","Уиттиер","60.784157","-148.67768","177"
"3395eba8-7ee4-45eb-9369-acc6d418a1e4","Монтана","62.079685","-150.072763","10"
"66a94db5-8fa7-4f53-92f1-3804530b1818","Лейк-Минчумина","63.882831","-152.312187","32"
"1bd71514-6ee1-4bef-aacb-845fb8d33ece","Кантуэлл","63.391595","-148.95079","222"
"7fd2e214-39a8-450c-a6e7-7affc3c8338c","Гулкана","62.271353","-145.382196","119"
"d95a0198-1cd4-4a0e-bf26-17419ec5f2a2","Игл","64.787995","-141.199997","104"
"cfa5134c-d9ef-459c-9f63-63ea26e83604","Ненана","64.563797","-149.093003","75"
"bd53ea98-997b-4bd8-b56e-4c545b3b3d08","Биг-Делта","64.15253","-145.842194","591"
"1f4abee7-0a34-4cac-a0af-52baf551b12f","Аллакакет","66.565483","-152.6455","97"
"4115612c-b0b0-4ca2-a7e7-2930d678714e","Танана","65.171873","-152.07879","308"
"3cdafe74-3640-4b2d-86c6-a7ee452d4f22","Бурленге","60.483322","15.416671","39422"
"a9a6e676-3097-430a-a559-6650d2eecdeb","Вестерос","59.630015","16.540013","107194"
"a3cb8d93-d8f5-4ab3-9cbf-50207e2bc89f","Николаев","46.967739","31.984342","510840"
"f08f5de7-b0ec-4518-9102-a0b9d007d7fc","Чернигов","51.50493","31.301541","307684"
"0a6035da-50a7-4468-8275-826eb36481d9","Хмельницкий","49.424928","27.001545","398346"
"80849431-b202-4975-82a2-a50ed79a73bc","Каменец-Подольский","48.684301","26.580899","114658"
"79af691c-f347-4f38-a4d4-e7cea824ecc8","Дрогобыч","49.344364","23.499382","124269"
"87bd66e1-71b3-4a85-83d4-49e558824ed9","Ужгород","48.629989","22.250001","150832"
"6168cd1d-5d2a-4bff-826a-32b02defce43","Умань","48.754297","30.21091","87658"
"9418642d-00a1-4e03-ae0e-8336c299e030","Бровары","50.49432","30.780901","88506"
"7466fd07-24a3-4192-b0c3-b6fce08d22b2","Белая Церковь","49.774312","30.130915","199163"
"398e8a89-02e7-47d2-84cf-0b804651575e","Черноморск","46.300002","30.666593","54102"
"ebbe66a1-182a-434d-8837-9e790bc2aa1b","Конотоп","51.242388","33.209022","103547"
"d0b8b556-1d23-4bc1-b1a6-4d826e681e5a","Кривой Рог","47.928326","33.344983","652380"
"8ca9becf-7504-4a2a-baad-cf1042619bcc","Макеевка","48.029664","37.974622","376610"
"8ab5f304-ce9a-455e-9493-98141092e573","Горловка","48.299647","38.054669","396885"
"f8fe4005-895b-46dd-85a9-262db8b4e250","Краматорск","48.719363","37.534391","184105"
"a1fbd9b3-6edc-4a9e-afe0-14b7f3a246db","Бердянск","46.756822","36.78684","118284"
"dedbc7c0-f1b1-416e-b610-f0e8a86e267b","Эш-Шихр","14.759317","49.609158","54274"
"f91bcf74-33dd-4fb8-ab8e-df31a6c8eb40","Умм-эль-Кайвайн","25.565273","55.553343","44411"
"7dc737a5-70bf-4a49-9df5-35eaf1ff8b09","Шарджа","25.371383","55.406478","1103027"
"37ebfecd-7f12-4905-9405-33b774ce5efd","Сердар","38.97554","56.277795","48458"
"976af9a7-2566-4945-8875-4fe4274a3262","Хазар","39.436155","53.122591","1206"
"35c67866-6914-4d67-af36-880982ac76ba","Теджен","37.378609","60.496038","67294"
"8098b841-4ed1-4dce-b6e4-61c02ddf5cc3","Абаданский этрап","38.051668","58.210028","40813"
"20750ae8-a68e-4596-ace0-7145ac31bfe4","Кёнеургенч","42.316654","59.166662","31400"
"d31a3862-ee21-4b22-a709-f090f788cb92","Ходжейли","42.40471","59.451658","60401"
"fe4f5fab-59e2-48a4-b11a-63f556793dd4","Ургут","39.400707","67.26069","99675"
"eb7e6a3a-d374-43ad-af39-a2eb52853516","Каттакурган","39.900703","66.260751","247113"
"4b6e8e67-728a-47d3-b2ba-b27527ce6637","Денау","38.277158","67.887164","217274"
"7316f669-5b44-4607-94a5-eb225d603254","Бохтар","37.837315","68.771347","311574"
"5898475d-c680-4c2a-b5b0-2fd25ee51205","Канибадам","40.292152","70.427164","259876"
"f2186fd2-7bcc-43d9-a3c6-d9cf4d3fd6a0","Гулистан","40.495731","68.790726","95520"
"bc157a18-e041-4ea2-8b0b-f64e59424675","Искандер","41.550731","69.680749","195633"
"c723f98f-97d0-40d6-8e8c-cef821633d7f","Чирчик","41.454975","69.559981","167842"
"cf6e39f9-907e-4d4a-9a72-856db31a30ad","Накаоме","13.529987","-87.489968","47000"
"03571593-4962-4d97-aa4d-ba74eaac0659","Санта-Роса-де-Копан","14.769989","-88.779992","35529"
"66a1b0bf-2c72-4a9b-9d90-97a14164ad29","Корривертон","5.900039","-57.169984","12000"
"e6c7b722-07dc-4e1d-a152-8e012f16415e","Итуни","5.430016","-58.249995","100"
"497c9f7b-6bf3-49da-ad77-4b7f46992c6c","Летем","3.38996","-59.80003","352"
"1009564a-f051-4ff6-a7ab-0e5774acdd17","Хихон","43.530016","-5.67","335972"
"81675dcb-448e-4526-8a2a-c8f8751e78d7","Витория-Гастейс","42.84998","-2.669977","224578"
"7483cd59-7b21-4d89-b75a-3186bf2ea526","Гринок","55.93329","-4.750031","74635"
"1cef31ad-7197-4ef9-8ddb-49bc4aa1c67a","Сандерленд","54.920019","-1.38003","452934"
"1fd0d4d9-9762-4e54-9696-2c613a7237e2","Саутгемптон","50.900031","-1.399977","384417"
"74f7e146-56a0-4578-9dc3-28aaa446476a","Бристоль","51.449998","-2.583316","553528"
"d33aaff2-c092-4f7a-a96b-6d6ce4d52781","Борнмут","50.72999","-1.90005","426945"
"0eead946-71c0-4235-b825-bd2e1350f8f3","Ома","54.600012","-7.300004","21056"
"9160814f-e3c3-41a3-a00d-d173a852ea04","Честер","53.20002","-2.919987","89531"
"fdebdef3-a979-4919-8597-24174d9107d5","Суонси","51.629987","-3.950002","294339"
"11b6390c-dca0-4915-9eab-7fd5f76fdea3","Карлайл","54.879995","-2.929987","72633"
"a4c61ff7-e52c-49dc-8fb1-2c5607fcc23d","Айдын","37.849975","27.850021","198857"
"3947411a-91be-4ea0-b748-8e710a730ffb","Люлебургаз","41.406657","27.355219","90899"
"b6bad134-c876-4281-a6d6-ef9f0b5a1b48","Ыспарта","37.76998","30.529961","172334"
"d3f85324-6075-46e9-ba91-b4fa5f4d3659","Кютахья","39.420009","29.929997","185008"
"de241b56-4ad6-4382-9369-d15e3ed3a4ae","Мугла","37.216371","28.363891","48183"
"33164661-2ebc-4d17-9fed-e51205cb8bc8","Элязыг","38.679976","39.229998","271492"
"4926f8f4-2a1f-456a-a563-20d0d5655f9e","Кахраманмараш","37.60999","36.945021","376045"
"92decfdb-1f5e-4e95-ad0d-1a379ef3a6e8","Мерсин","36.799988","34.619995","616990"
"2ba7306d-61a2-4945-9159-1390b6d8100c","Чорум","40.519993","34.950001","183418"
"06c7b2cd-aa78-4cb8-ac2d-bdc2653b5bd0","Ризе","41.020841","40.521857","279450"
"15625a05-2d87-4c66-9072-50e364ef1022","Татван","38.506576","42.281595","73222"
"a4289d90-a147-4ac5-81d5-fb950dbe4f4e","Ымсон","36.935251","127.689715","10077"
"c5e98af1-3d4d-4557-8d10-a6df90f05474","Чхонджу","36.643899","127.501199","775096"
"93bdda91-dd52-4af7-a52b-7782f7671bde","Вонджу","37.355148","127.939622","243387"
"c9f03c2f-c4ca-42af-9f4c-d9399887af8a","Чхунчхон","37.874702","127.734157","226509"
"dd68d4c3-625c-46fe-8095-0e31d92dc6c9","Ансан","37.348068","126.859533","739493"
"0be307f7-d0ea-47e8-a916-790c3a73f376","Иксан","35.94097","126.945419","283501"
"405251a0-8644-4209-89ad-7afb95453af4","Кёнджу","35.842759","129.211689","155237"
"cc4ae91d-e891-428d-bef6-53b532f79865","Чханвон","35.219102","128.583562","1081499"
"640ddb32-8ada-44f4-b431-34ca8478ba6a","Саутенд-он-Си","51.550018","0.719997","618386"
"622868e2-f017-4fcc-8da2-ce8c07e6f391","Рединг","51.469971","-0.980028","369804"
"b3dec890-0f65-4eef-b2ca-fe2e45f3a11d","Лестер","52.629977","-1.133249","457983"
"cbdabb70-3fd2-4e90-b36d-fe2f9b778880","Брадфорд","53.800035","-1.749981","501700"
"599ac4b2-0c5d-40d2-b866-72f11a691812","Шеффилд","53.366677","-1.499997","1292900"
"5886b7bb-1a22-4a77-b348-0cf8ab444644","Полатлы","39.584159","32.147226","93262"
"0e0e0a6f-c7b2-483a-9ad3-596c53837499","Карабюк","41.200003","32.600015","128564"
"fef8873a-f9e3-4ef0-aee7-47abde314dc6","Нусайбин","37.074984","41.218352","152668"
"a5c14d75-0b93-4848-b5c6-57d65a88fe79","Хаккяри","37.574437","43.740834","77699"
"df6e2aad-39ad-4d66-a449-d97cb204496b","Сомбатхей","47.225346","16.628742","109518"
"fc753ff3-f71b-4572-afac-ca7c99a07082","Кечкемет","46.900043","19.700027","113895"
"0ca9be7a-d333-4567-b1d7-0303cd8ae422","Секешфехервар","47.194676","18.408065","144319"
"111ba420-ed5d-486d-9278-12a6a05228c2","Ньиредьхаза","47.965327","21.718715","176880"
"29581b1b-ee7d-4f46-9187-ebc474fa0b7c","Биль","47.16659","7.250038","78708"
"86745f76-3272-4ff7-8ff0-88980513b4d0","Сан-Хуан-дель-Сур","11.249997","-85.860041","7790"
"4fbdbd03-5f29-4075-bb8c-4e99b240acef","Дробета-Турну-Северин","44.645891","22.665893","106578"
"793362e4-1a9b-4222-a518-41b64b4d89fd","Тулча","45.199346","28.796681","92475"
"6a75e0f2-e712-4f46-9e36-0bb2c8d9610c","Арад","46.17001","21.31998","169065"
"09632a05-68a0-4603-871f-b100cd0d81c1","Орадя","47.049982","21.919995","213830"
"529f4b80-023c-43a5-8eec-bc15c9171570","Сибиу","45.797113","24.137121","155565"
"c9ef6187-7506-4079-b96c-890497d9dc5e","Сучава","47.637698","26.259317","105796"
"789e77a1-dfc7-4ed2-8418-2337bf1da735","Бузэу","45.156506","26.806519","130954"
"d19fa857-3a34-4881-becf-a0c08f0f6017","Галац","45.455893","28.045874","311156"
"7af84d03-37c5-4e73-976e-dd57cf3252fb","Фокшаны","45.696551","27.186547","105112"
"cdddf01a-782f-42a7-82dc-63c37884fb5e","Ферреньяфе","-6.629997","-79.800023","50184"
"68ef5aa9-032d-434d-bbd2-a09be5eaed01","Мотупе","-6.150026","-79.710003","13681"
"a07cd332-e269-4a1f-b645-67739011636b","Мольендо","-17.020009","-72.019982","49033"
"9dd58cee-61b8-4bfa-a99b-c2b12c5371be","Урубамба","-13.304215","-72.116617","7540"
"ae0706cb-def7-4f30-af64-4f206eb3355e","Санто-Томас","-14.46001","-72.080004","4134"
"60bce2e5-2e05-495f-aa3f-e22dd7032147","Путина","-15.470026","-69.429985","8118"
"800e103a-0e63-4a77-97c6-c5ac2fdb0c5f","Касма","-9.440007","-78.209991","30000"
"c3d05434-60fd-4dfb-98bf-83afb2b2e1bf","Турнависту","-8.932182","-74.705218","511"
"568f3c03-fc54-48b4-a759-ec5d53427b2a","Уамачуко","-7.810029","-78.049949","30835"
"c5547353-2e54-4702-bf41-aac47a55fbef","Отуско","-7.899997","-78.569995","10134"
"28322b85-9c7c-4b6e-9339-0be7cc275e9a","Ламас","-6.430009","-76.520017","13693"
"4834a62b-e031-450f-b3ca-4e205ee6e671","Наута","-4.57002","-73.780029","2500"
"71ea914b-809b-44a9-bd0d-451824357e41","Пукио","-14.699996","-74.129982","10491"
"b782cf61-4d52-497a-b919-0414369c0a04","Чосика","-11.930035","-76.710005","88606"
"f52d99dd-b08b-413c-b03b-4798e2a017e5","Сатипо","-11.259999","-74.690025","15532"
"da839c32-aeee-46e9-bc94-6526aea8fe9c","Тарма","-11.410015","-75.729988","51350"
"533cc06c-9e2d-4c58-be78-633d82d7083b","Ла-Оройя","-11.520035","-75.940001","33345"
"9e81460c-852e-4090-9358-1e14a8008359","Уаура","-11.060011","-77.599977","40400"
"bd9a95ce-957d-45cd-98a7-9566a8551675","Уачо","-11.110034","-77.61995","80474"
"787415c1-bcc0-47a7-ad4d-b84ae2fe7888","Хенераль-Эугенио-Алехандрино-Гарай","-20.51995","-62.209986","972"
"e77dae24-bcf1-4edf-ae1f-e0051d75a7c9","Арройос-и-Истерос","-25.049958","-57.089988","3055"
"a2199727-84b6-4237-ae3f-ee81be1a8149","Вилья-Эйес","-25.090007","-57.529987","15643"
"aae49f84-6fdb-4fc7-bf76-ca74a6ce1f5e","Фортин-Фалькон","-23.050287","-59.849949","-99"
"e775a7af-b349-4dc4-93de-f6f6763ce390","Пуэрто-Пинаско","-22.640028","-57.789997","500"
"56169dc3-c5f7-4fd7-9a0a-d8d0f3f7419d","Посо-Колорадо","-23.430005","-58.859984","2135"
"b756af6c-6076-44ce-b3cf-4c385c671d69","Сан-Педро","-24.089965","-57.079989","9360"
"31cbd946-ce4c-4b85-a90c-960fdd844fce","Сан-Лоренсо","-25.340018","-57.52004","500000"
"285453f8-0454-4670-b892-40cd93b46165","Ипакарай","-25.409988","-57.279977","30150"
"5cb6a32c-3a20-4189-b7e2-55101c2c3764","Сан-Хуан-Баутиста","-26.679988","-57.150011","7882"
"3dc00a88-a64f-4390-aab2-7d47681f49ec","Парагуари","-25.620001","-57.16001","18881"
"9876f726-0b02-45b7-8b6b-d4539057ec16","Ньякундай","-26.020028","-54.769949","1250"
"f136107b-e244-4371-b063-6f7d89d5d164","Коронель-Овьедо","-25.449985","-56.439951","88101"
"45849872-efc1-4ad4-b847-0d87c96d91a8","Каасапа","-26.200017","-56.380006","5504"
"57cde95f-afb7-4a39-8532-f2d016a488ad","Ипеху","-23.910028","-55.459985","600"
"cdb906c5-17ba-49ae-bb66-965426c3134f","Энкарнасьон","-27.347185","-55.873919","357119"
"08a66dfe-8c7c-44e0-adc4-cf96627fc0a8","Коронель-Богадо","-27.170035","-56.25004","14297"
"5e362e92-9240-4e65-9810-79e10595c25f","Эстели","13.089988","-86.359985","107839"
"263dfaf6-6561-4574-b0ad-1c1e96add9a7","Боако","12.469974","-85.660002","29046"
"a369cec6-0f77-415b-beb8-49b96b21e13b","Хуигальпа","12.109996","-85.379967","54731"
"e7f3b8bf-fa37-4811-980b-7e1631fe6fb2","Брага","41.554995","-8.421331","826833"
"5cbd435d-12ea-40dd-adb5-d8384c417f25","Ковильян","40.283341","-7.499992","24828"
"9527f240-0284-469c-9e85-9e72268206b4","Янбу","24.094277","38.049295","267590"
"4380f110-386b-4d14-909e-008bcc8ea6d0","Думат аль-Джандал","29.815298","39.866393","22583"
"4b47619e-8ccc-4c08-981d-8af53d7a8b3e","Биша","20.008687","42.598681","88291"
"980bdf48-4ed4-477f-9785-673b2c9876cd","Эт-Таиф","21.262228","40.382279","657282"
"6fb20fed-f2bf-4bdd-8605-d7901337bd37","Финснес","69.240617","18.008606","3907"
"7cd0a23b-907a-4650-8497-60da65594feb","Эйндховен","51.429973","5.500015","398053"
"0cc74a66-1d0f-4b00-afc3-ffc7859adb4a","Йёвик","60.800021","10.700008","22719"
"731a2895-c132-42ee-9901-f02172990b63","Рёрвик","64.868016","11.2053","2615"
"dedaa157-b66c-4130-b7b5-111debd3e6cb","Банска-Бистрица","48.73329","19.149983","82336"
"6f389c44-914f-4c2c-971d-c97737cc5696","Трнава","48.366594","17.6","69785"
"88e8d25b-79f0-43a3-a1ab-3dbcee6a50ae","Резекне","56.500026","27.316565","38340"
"fda14fed-64d2-4a46-a716-00f1da8bfd51","Паневежис","55.74002","24.370026","127405"
"23c19244-a628-4c7b-81b3-7239cade99e5","Шяуляй","55.938639","23.325026","133528"
"d062599a-c60c-4ff2-9418-97e3423ee726","Наджран","17.50654","44.131559","369609"
"4210c2be-d55d-4d8f-8b35-1854fbf68df6","Эль-Кувайия","24.07371","45.280636","8712"
"7f884fa0-c7df-40cf-8b07-1074750e8c6f","Аль-Хилла","23.489456","46.75636","594605"
"1bde0e21-cfbc-4be3-96b5-483faef5d6fe","Эль-Мубарраз","25.429054","49.565905","298562"
"bc5b65c4-7663-4dd6-84ca-21c397da30d9","Эль-Катиф","26.519633","50.01151","368892"
"1c86e3dc-86c0-4037-a420-ad9ea47daadd","Дахран","26.29143","50.158323","97446"
"42170014-1c78-4c1d-a431-24f690739c7c","Парачинар","33.899183","70.100827","55685"
"78b18fb7-3f22-410e-b801-080303e1947e","Сиалкот","32.520016","74.560038","477396"
"b5b11aec-2b45-46c1-a0d1-7677bfda4049","Шекхупура","31.719988","73.989995","361303"
"e8485ca2-4943-47ff-89ec-0f7ee8123520","Гуджрат","32.579987","74.080015","301506"
"afba69b0-a7d1-4c33-9fb7-e24ab5c1f3eb","Сахивал","30.671731","73.111806","235695"
"0173fa23-fdbd-4392-a6cd-c850a540f02f","Чиниот","31.719988","72.979979","201781"
"c8006a1c-4ef0-4748-afb7-45a7dbe76310","Рахимъяр-Хан","28.420241","70.295182","353203"
"fafe0213-5d1b-4845-8b7c-6a4a3e69eaa6","Токмак","42.829878","75.284593","112860"
"17842a24-c520-4a88-a8e6-2a34bdba4e7b","Кара-Балта","42.830627","73.88566","74133"
"bf0d4d06-635c-4585-9a2e-22938274c1ea","Чолпон-Ата","42.651336","77.081073","18595"
"f156e929-0ea0-4803-9f5d-2ab69260b547","Нарын","41.426346","75.991062","52300"
"d8c598e3-069e-4533-b68b-edc7402636ab","Кок-Джангак","41.030711","73.205754","15000"
"f93f4b97-8f88-44ef-a773-9f401d186620","Мансехра","34.341791","73.196814","66486"
"dc95602c-36b7-4eb1-ae28-feda46880632","Кохат","33.602689","71.432684","343027"
"e944fb94-db82-4ad2-b84e-3efa92b528ba","Абботтабад","34.149503","73.199501","1183647"
"893e0deb-90c2-4e0d-8d3d-5105c8a430c0","Мардан","34.200043","72.039985","300424"
"0fb79eda-7264-4a89-a111-94d8feb3e07d","Лалитпур","27.666618","85.333334","337785"
"d42f9b42-a8d2-47b1-9f53-ffca5798da64","Хетауда","27.416684","85.033352","232334"
"ac4d5850-0b97-4dfc-abeb-319fb599203d","Пенономе","8.509983","-80.359989","28766"
"f7a42c67-cb31-4a05-8cfc-6409e09a0ff2","Читре","7.970016","-80.420037","44082"
"00cd6911-4a59-4cfa-ad3f-900da26ce98b","Хаке","7.518958","-78.166015","1357"
"71cdb5bc-ceec-4e0c-a91f-097525ff05b3","Призрен","42.22932","20.750092","171464"
"5062369a-717c-41d9-aac5-45d05aa372a0","Эль-Ахмади","29.076945","48.083773","68763"
"01f0f771-5604-4a79-95ae-fd3599c1724e","Эль-Джахра","29.337472","47.658062","194193"
"d61b760e-896b-440a-b303-f1ee26dc4289","Бокас-дель-Торо","9.33535","-82.247471","9883"
"251856ac-df81-49b1-ab9c-287e3cb9ce6c","Альмиранте","9.300012","-82.399968","8114"
"a838d9f7-2962-48f5-b4bf-485bf44bc898","Майкоп","44.609976","40.120021","158451"
"db28f8bf-4e74-4f1b-920a-a0d76291d491","Моздок","43.754318","44.65437","45702"
"d15cccb9-1643-4b6c-ab83-a76e8dc53f11","Георгиевск","44.1599","43.469946","72649"
"62c564f9-04e1-448f-a7a0-a8302f103689","Пятигорск","44.079957","43.090021","142865"
"1aa2080f-ca52-4295-af05-6ba096c90d23","Кисловодск","43.909967","42.720018","132771"
"e8d321a5-80c5-433a-999e-39de9eded35d","Невинномысск","44.620053","41.950039","134380"
"aac2b51b-fca9-4747-b4a1-4fc88f2b55d8","Энурмино","66.950008","-171.816603","297"
"a2139f88-431b-44b6-b558-87f9e486b8d6","Лаврентия","65.58327","-171.024998","1242"
"2a0b1f09-3975-45da-9431-ce28a8b00893","Звёздный","70.956585","-179.589979","10"
"c996f481-38db-42d2-8db9-5ae4c1b97fab","Михалкино","69.42444","161.481143","570"
"ef010036-d063-44f7-bb65-c4eb691e4030","Черняховск","54.631638","21.810855","45187"
"d259002c-cb30-42ff-9836-ef923d0811b5","Североморск","69.073057","33.423066","53921"
"c41edd68-a1fc-4816-97aa-99aac4b27c48","Апатиты","67.573071","33.393042","66907"
"b6cb4ab3-575e-455b-9053-e0a9e45138b3","Полярный","69.205219","33.450247","19200"
"dfbcb465-3e56-4080-9c98-7e9cf3a1a98e","Сланцы","59.111597","28.074658","36209"
"94d21d7b-d4f2-4403-bed1-012f1caa7240","Колпино","59.730009","30.650005","225801"
"c6bd9a5f-d690-4d08-8d3b-29b23e697fe5","Новозыбков","52.534815","31.944861","43534"
"91cbebe2-99c4-4b78-8a85-8cced435b9d8","Дятьково","53.589144","34.339185","33527"
"1ec6ad76-9d95-41db-ae46-5947b7ebb238","Шуя","56.854345","41.364286","60705"
"c78f69f8-df93-4494-af70-45c0e3875b53","Кинешма","57.469966","42.129976","92983"
"ea44d4a2-5b02-4d56-bb25-24ba0c9afac6","Балахна","56.494341","43.594383","63083"
"d63aab9c-35a8-4b09-a57a-9c56348bcecb","Арзамас","55.399989","43.800003","142597"
"f2691806-a412-41aa-9df0-68920a52a01f","Ржев","56.257405","34.327455","63414"
"3d18dc42-9750-4f10-86ae-aa8b3bf85c92","Вышний Волочёк","57.583034","34.563099","53800"
"f7fc0264-87e2-497e-9687-da2fb47b0440","Углич","57.524356","38.330001","37732"
"a53faf4e-b567-4815-86e8-d55df08ad9b2","Елец","52.580006","38.500017","115919"
"457d5ab6-5b97-48e9-bbe2-9d86d0a5b759","Орехово-Зуево","55.820015","38.979987","140247"
"e64004bf-32de-4e54-8900-7f73cf8f6f0a","Клин","56.343058","36.698731","80778"
"2ec369f0-b263-4285-8cdd-4ab14dfaa607","Сергиев Посад","56.33001","38.170011","109252"
"01ed200f-96f9-49ce-b945-2c6191d9403a","Коломна","55.079983","38.784961","147690"
"7c027386-02cb-46c3-a9c5-52697a99e046","Батайск","47.136824","39.74485","109962"
"2920e872-768c-4e80-ba92-b4dd4653f245","Таганрог","47.229997","38.919991","279056"
"af96a359-af10-459b-a511-d7de95f43b4c","Новочеркасск","47.41996","40.080024","166974"
"5f7538bd-5608-4976-a126-49fe7886faaf","Каменск-Шахтинский","48.331764","40.251796","75814"
"9ccf26bf-66c3-44bc-8ce5-036c6b4b8c18","Новошахтинск","47.76999","39.919982","99478"
"5f9a4dd2-28ca-4f01-a0f4-5e1df7a4afcd","Алексин","54.514333","37.094366","66885"
"4878f2d5-4051-461b-ae9b-35f71f9fb9fe","Новомосковск","54.090018","38.219982","130982"
"825177d5-98e5-4fe0-89f3-c6dadd921e36","Щёкино","54.014337","37.514289","86088"
"539eca7b-d652-48a7-bb08-db0b18dfd273","Николаевск","50.016106","45.426106","16044"
"74788a73-2b3d-4b15-b9fa-2c57fecb8cdb","Шебекино","50.41435","36.894378","45194"
"c061ac87-4d48-48d0-996f-c9bef894e2d0","Губкин","51.27435","37.384323","272"
"cf00c2c5-75da-48cf-a71d-1e15e9785ff6","Апшеронск","44.468719","39.728727","45876"
"339b9df9-f483-4320-b1f5-331afbc31078","Кропоткин","45.447083","40.582112","79599"
"16ad813c-b326-4308-8cbb-58b47215abc5","Рузаевка","54.064334","44.924379","49311"
"154fdd92-99e0-4612-bb3e-dd2a97d235c4","Кирсанов","52.657392","42.717434","17975"
"f6b4370f-65ea-42df-8958-9e93278c55da","Мичуринск","52.899987","40.499998","93499"
"ff2196d3-935e-49af-a8da-8afb22fe3930","Борисоглебск","51.368711","42.088738","68597"
"cff93538-8600-48a9-9ca1-195d91185719","Октябрьский","54.459969","53.459982","108200"
"66e838d8-9ea2-40af-b919-46f0348b4a0e","Пласт","54.368502","60.808526","17050"
"807599f0-badf-42f8-92a4-854241b285fe","Бакал","54.945883","58.795884","26559"
"cd7877f7-4013-44db-87d9-d25ecab1d748","Верхний Уфалей","56.066279","60.2313","33879"
"7444836e-f55e-4fb9-8cb9-1f8730b3f017","Северный","67.608288","64.123259","11562"
"4387c115-2d98-4379-9b61-b3a6e05b9257","Кирово-Чепецк","58.55437","50.044377","90252"
"50533e32-b1c2-471c-b436-fa140e08878d","Краснотурьинск","59.794786","60.484773","64878"
"6c3ba49d-7507-486d-9f5b-434bcd55065d","Асбест","57.023043","61.458047","81248"
"81be0a76-044f-4bb1-9f46-2e13cd294b87","Алапаевск","57.846507","61.691521","44000"
"98ae04f3-0ca0-4a4e-9753-5b8c57dc6e7f","Красноуральск","58.351515","60.051518","20571"
"91488187-6e19-40d9-837a-991ddf55944a","Североуральск","60.156521","59.961549","36138"
"e4515898-1292-4faf-9765-a08ed91f41e5","Новотроицк","51.200013","58.330021","106186"
"fbebd6d1-0a64-4a27-8744-2c69449d08dd","Бугуруслан","53.663015","52.433016","53511"
"1f58582a-a2dc-4447-863f-3047d784c82b","Чапаевск","52.974323","49.724344","107164"
"19a12cb1-6d95-4e3f-8e0b-df4fcce703ae","Сызрань","53.169996","48.479976","189338"
"3c3ecb51-2f37-4255-9bbc-e7d89d748a18","Новокуйбышевск","53.119999","49.91994","152334"
"0326b4e8-5c25-45d2-9937-0a0117762f20","Набережные Челны","55.699997","52.319948","461086"
"f67a0241-f60f-40af-95bc-73658cd77e1d","Зеленодольск","55.840557","48.655004","99600"
"868dfe2b-50d9-4c97-ac70-7505f57c5a21","Лениногорск","54.598695","52.448726","66263"
"09ca63d0-fd18-4556-8888-366b5f93b9ee","Бугульма","54.55433","52.794286","91900"
"fd69cf8f-d092-48d9-b49e-7f9c7b1b0744","Нефтеюганск","61.077653","72.702684","112632"
"9c5503f4-b44b-4397-a440-020b42bf736d","Ленинск-Кузнецкий","54.660009","86.169975","109023"
"f590f36d-ac0d-49c5-a3f7-e806e90c0e11","Анжеро-Судженск","56.080025","86.040009","83692"
"f6081bea-3416-42cc-aa9f-2712c679ad9a","Киселёвск","54.000023","86.640024","104000"
"090557a9-04c8-43cc-9edd-0c7c1f1c790d","Мундыбаш","53.233274","87.316675","5870"
"d617f3a7-fe28-412a-a2d7-a701f6c40b7f","Черногорск","53.831325","91.22269","71582"
"c20c3cfd-ea63-40e9-93a1-ec38088ea4e7","Абаза","52.669019","90.095369","18094"
"187bdc3f-97c1-4cdb-94cb-5acb4f2cce44","Искитим","54.650939","83.286534","61827"
"13deeb04-1495-4ce5-92b3-9cca429f3c40","Тогучин","55.237674","84.377681","21886"
"8f0c2f3b-5b2c-4d81-b818-52f8342d2c53","Купино","54.359226","77.274187","16333"
"e597a718-338f-4347-ada6-5b5d9e06aafe","Алаят-Самаил","23.303189","57.978208","47718"
"cddd7dd0-f81b-4203-97ff-1a519ff6a636","Заозёрный","55.96197","94.702788","33865"
"8b97df74-ed84-445c-976b-bd70758b0304","Боготол","56.216477","89.518401","23622"
"421405d7-79f5-4cb1-b230-09e0ad6f0347","Шилка","51.870566","116.030633","14132"
"c927d4e9-c2ae-4141-a943-ae9069d3edba","Шерловая Гора","50.530597","116.300643","411"
"81683fd1-ea41-45cd-a352-3e139b0d79fd","Петровск-Забайкальский","51.282695","108.832675","20889"
"0ad062a1-be90-44ef-b61f-d4a7fe07f0c7","Арсеньев","44.162303","133.282345","58700"
"016fb3a6-fefd-408b-8b6d-cd3855240c37","Партизанск","43.134872","133.134912","42489"
"546b2d58-64df-48ce-8df9-479a93da3bf4","Дальнереченск","45.927286","133.722318","28300"
"7cc32b3b-c5f2-4f9e-a73b-e7ca4f012d75","Земля Бунге","74.898308","142.105011","10"
"db4be7b0-9ae1-477d-8fa8-16b9a36973bb","Горго","73.483304","113.630004","10"
"ddf9b32a-0892-4993-baac-9f399b02b93e","Путь Ленина","68.516631","107.799973","298"
"728c3509-771c-4156-b38d-91b69a6a574b","Облучье","48.999992","131.083306","10000"
"64745703-1d23-4b6b-a61d-f4350e49aede","Ванино","49.087326","140.242489","18618"
"0652acc2-b7c9-43e1-a1b0-0c0fbeee77ee","Омчак","61.633278","147.916697","10"
"6fb37f55-e426-41a2-853b-9c6368f21c81","Углегорск","49.083346","142.033335","12669"
"774725d7-db4b-4c36-a07d-794f26614ae0","Холмск","47.047321","142.062378","32911"
"7e11f0d1-31ff-4390-a6ad-642e6da4cfc4","Винсенте-Герреро","30.764051","-116.00926","12829"
"cf665d01-c176-4c5f-8a89-551335d45875","Лорето","26.013333","-111.351664","11227"
"03246112-dd52-4a15-9ec9-bb743f613599","Сьюдад-Конститусьон","25.040008","-111.659991","39915"
"90df2b07-5c58-4337-9180-9e4774f4433a","Альенде","28.329988","-100.849979","19636"
"bc8d5a46-2eb7-440d-8858-c319000d686d","Нуэва-Росита","27.949959","-101.219982","36642"
"28d2a8cc-806f-4919-8df5-4642258ec216","Идальго-дель-Парраль","26.933355","-105.666636","103378"
"f0d444b0-b4f9-4913-baaf-2021cfb005d3","Асенсьон","31.100026","-107.979983","11781"
"c538dd2d-f554-4d11-9672-2ce50c37cae9","Гомес-Паласио","25.570053","-103.500024","399328"
"aa386a8c-e51d-4b1a-b7b2-a06b6e1ec53f","Канатлан","24.519988","-104.779997","10342"
"88f85944-b079-4051-8d46-1d7795b50818","Вилья-Уньон","23.199991","-106.230038","15443"
"b6ce92c6-88d5-446e-924b-52e290015b44","Альтата","24.636045","-107.916215","1000"
"9b65e461-9fa3-4dc1-84da-cba9a4e587e9","Эсперанса","27.580008","-109.929993","3836"
"b15869b9-59c3-424c-bdb1-16e5b074faa0","Магдалена-де-Кино","30.616618","-111.049951","23359"
"ee8e5ccb-8b17-4e47-ab3b-c19ef66eec7d","Накосари-де-Гарсия","30.420015","-109.649984","11872"
"9a3fb05f-58d1-4675-9208-08d9a02be541","Вильянуэва","22.350017","-102.88001","11138"
"e8b638d2-307a-407d-aeda-d0f50c50dc5c","Монтеморелос","25.189999","-99.839989","42640"
"023ad701-4bcd-4aef-a646-806650ce611e","Сабинас-Идальго","26.510021","-100.179968","32047"
"4f03b854-c72f-4f49-ab04-756956f59d99","Карденас","22.000012","-99.669999","15331"
"9234f0b4-2b42-4262-a610-56edc983360f","Сьюдад-Вальес","21.979988","-99.020013","114964"
"92f9bebf-cef5-4c7c-b549-561c8e6a09b4","Рио-Верде","21.929991","-99.980006","69613"
"431d24cd-28a0-40f3-92fd-fdce9c3ca507","Сьюдад-Манте","22.733353","-98.950017","79981"
"4c628fc1-800a-4e99-b12c-9f8107df55e4","Рейноса","26.079996","-98.300031","498654"
"f913d625-8df6-4e1f-9709-ee9406aa5c3b","Сьюдад-Мадеро","22.318908","-97.836106","192736"
"060f015e-ccb3-494d-ac6c-d00c67fc71f7","Аутлан","19.770019","-104.369997","47669"
"a3ad2867-dca3-4e12-a11c-7639f64db690","Идальго","19.679973","-100.569996","64154"
"ce4b3602-49c7-4475-a369-1e5e03297b47","Апацинган","19.079984","-102.350017","98422"
"895adede-11c0-4258-96c6-b476b3190acc","Сантьяго-Искуинтла","21.819998","-105.220048","18365"
"04669922-8860-4d41-a3bd-eb9f859ee64a","Хучитан-де-Сарагоса","16.429991","-95.019999","67637"
"3e56b8d3-7137-4d37-8565-23b3d75d0b94","Мьяуатлан-де-Порфирио-Диас","16.329997","-96.600006","17632"
"257643f8-fa7f-4eaf-b178-c6dc2b754826","Атлиско","18.900021","-98.449996","97842"
"3821b76c-81d7-4868-aef3-5e1c37c3d8a4","Акатлан-де-Осорио","18.19996","-98.049995","18879"
"626d9e86-fe68-43a1-9f66-4189239777d6","Параисо","18.400026","-93.229979","23830"
"14f9941c-dbfd-4acf-9bed-d9b0a1c0e235","Балансан","17.799959","-91.529979","11895"
"219a82d1-5605-4271-82f3-c6f5f3bac809","Тласкала","19.319995","-98.23001","503878"
"1e949086-deef-4055-8d8f-7c26195adec7","Ирапуато","20.670016","-101.499991","339554"
"f83a6096-e0c0-4f3f-93b1-4109a29c3a41","Селая","20.530025","-100.800008","383697"
"3699e05a-28bd-4894-b1a2-151e583385fc","Чильпансинго-де-лос-Браво","17.549974","-99.50001","182387"
"9d80f28b-0a88-4b9a-ad1a-69b8ae190b42","Игуала-де-ла-Индепенденсия","18.370001","-99.539981","112106"
"f76f4d6a-8359-44fe-afc6-30cb50fd871d","Текпан-де-Галеана","17.249992","-100.679989","14638"
"9af75fe4-9e4b-4da9-8910-bc0c7fed11e6","Атояк-де-Альварес","17.199995","-100.43003","20515"
"f7114224-b710-4596-a0d8-efc5ca40c859","Несауалькойотль","19.410016","-99.029987","1109363"
"e86f36b5-62ed-450a-9a85-54a935658397","Сан-Хуан-дель-Рио","20.379982","-100.000031","147559"
"dbeab266-dc0c-40cb-a684-5d9d6871d7b9","Хальтипан-де-Морелос","17.939976","-94.73999","66998"
"bb54392b-fd51-43f3-832f-92bdad508911","Орисаба","18.850024","-97.129999","355333"
"b5bf3fe6-02ab-4f4e-89f9-251f1f5b82ac","Халапа-Энрикес","19.529982","-96.919986","452186"
"aa75ccae-b40c-4ad7-8fb7-456ffe7ec0c6","Наутла","20.216581","-96.783354","2890"
"4635327d-5c65-440e-9f36-a08b4680c63d","Сан-Кристобаль-де-лас-Касас","16.749997","-92.633375","186661"
"af174afc-a7e0-4551-854c-973fb6c10e30","Эскуинтла","15.330006","-92.62999","107638"
"5b55af50-b577-45a2-8300-6e0db6a3ea91","Мотуль-де-Каррильо-Пуэрто","21.09999","-89.279987","21253"
"59860846-be07-4f72-9bed-3419c59e2639","Текаш","20.199993","-89.279987","22806"
"66de5bea-8af2-455f-b1a7-987ed2d95009","Пето","20.129972","-88.919984","17607"
"64832bdb-f9e6-42bf-9657-b6cb6f6eb2f5","Алачо","20.479976","-90.080016","9165"
"f04cd183-d996-4cee-a927-7962c890d40b","Иво","7.629959","4.179993","250443"
"787c69bb-3a77-4215-a148-7476f9b7e84c","Исейин","7.970016","3.590003","98071"
"d1636250-3eae-410f-9449-70d01b69b4af","Тетово","42.00923","20.970079","119132"
"d32ce5b1-223f-463e-aed4-cb6c65cdba69","Сайда","33.563028","35.368787","173894"
"3f00888c-486c-43f8-aa3f-2d96ff704f49","Ольштын","53.800035","20.480031","186670"
"9c2eeb9e-da6f-4b6a-a540-725745c6843a","Эльблонг","54.18996","19.402681","127558"
"75b5ce04-a414-4e4f-8f9d-668709fdc608","Иновроцлав","52.779942","18.249987","79007"
"16c3f796-076b-4dfc-ab9f-8166f575024f","Бытом","50.350039","18.909998","662247"
"4e5e2bb8-22a3-4307-94f6-5d0a0aa20015","Ополе","50.68498","17.93135","131412"
"26dba5ab-49c4-4143-bbd5-43524d553df0","Макат","47.64824","53.326502","14082"
"25814b80-5096-498b-bb08-c1d1521d08c5","Соликамск","59.669987","56.749962","100812"
"395df185-7849-42a6-89e2-7e13b973ce70","Кизел","59.064365","57.634301","22135"
"38751125-923e-4a2c-9e5c-f8bea5040204","Бестобе","52.499675","73.099714","7189"
"5985272b-b329-43c3-96e1-25059ebcaadd","Осакаровский район","50.579948","72.569927","7305"
"75ea3948-a5ee-4214-b1d3-d173eb2db0aa","Агадырь","48.274869","72.859883","9710"
"12401ce5-54bd-4c1d-ad78-4400a61dd143","Шарбакты","52.499908","78.149948","107"
"8b68740b-3c5a-4d57-90a1-0d30754ec7c1","Шемонаиха","50.631598","81.904964","27176"
"befbc998-2068-44fe-a616-fd2917f46949","Серебрянск","49.699898","83.424871","701"
"956fec88-aa73-40e7-a055-7dac27cd6ebd","Боралдай","43.334137","76.82884","20996"
"22f246e2-3c14-4335-8388-acfe0ae9c103","Жаркент","44.161554","79.98012","36496"
"7c23d05d-c6f2-4479-91e4-513c4af0ba1c","Есик","43.36907","77.443789","35319"
"0ed2a35c-5378-4974-97de-6cd359f8ff2c","Ленгер","42.189917","69.87991","23058"
"864029a3-0033-4f8f-87aa-4ffe2f9d825a","Кентау","43.516503","68.51989","57408"
"a6709941-20cc-4fea-a514-5380814bd1db","Чанъён","38.251734","125.102069","48984"
"3c0335b9-b36c-45aa-915d-25c6c63749ad","Анбён","39.028172","127.518562","38142"
"46157602-b1ff-465e-a307-33bb36fba985","Мунчхон","39.381303","127.251705","73619"
"fbc58b67-1e0d-4d66-a0a7-64dba5f18c37","Кэсон","37.963999","126.564409","338155"
"8dfd0f77-3b2e-413b-9526-f3f5514e8a40","Чосон","40.825478","125.800838","7786"
"d4245a23-6c1d-4724-85a5-ec322f9c7ae7","Манпхо","41.145433","126.295846","186827"
"9dd4d2dc-8af7-4fb4-aa88-1e04cfc17d91","Сунчхон","39.4236","125.938969","400629"
"08e684e8-1396-439a-9ec2-34c3f54b2325","Кимхёнгван","40.81752","128.155319","3839"
"773443da-de5c-4942-9cc1-2903132d540f","Цэцэрлэг","47.476881","101.450179","19812"
"13e40673-a832-49f0-ae06-d37c134baf54","Пахачи","60.581585","169.049981","10"
"7279f911-37e8-4e37-8478-882f4d320c6d","Шаннон","52.703849","-8.864147","8781"
"db4f4a3b-33f2-4a97-bd9a-2dfcce7148e5","Уотерфорд","52.258295","-7.111928","49275"
"dee3df77-a72e-44c6-ade0-1ae9cf06419a","Трали","52.266692","-9.716653","26384"
"ca1b5a1c-f1d0-4647-88d6-fb6f0432f67b","Донегол","54.650009","-8.116673","2513"
"05605fc3-10a6-45e6-a137-564b6a6d7d4e","Модена","44.650025","10.919995","175502"
"e85dd52b-db02-4852-8382-411c22a86ecf","Кротоне","39.083337","17.123337","60010"
"479a9c2a-8d78-4556-a3c9-7a2c379ef63b","Вибо-Валентия","38.666592","16.10004","33957"
"377da83d-e729-4bce-b7f8-e7dff4705312","Реджо-ди-Калабрия","38.114998","15.64136","180353"
"ad02f551-06dd-4b00-8224-ba439135f87a","Казерта","41.05996","14.337357","250000"
"00158111-7e1f-4922-ac15-a79ccdb7374b","Барлетта","41.319996","16.270004","107830"
"48c1632a-7077-42bd-a282-b22fb7b3538f","Рагуза","36.930031","14.729995","68956"
"873fa9b9-66af-4ed6-b958-404f51bb9705","Ирбид","32.549989","35.849998","650000"
"6846f3b9-2c41-410e-b31b-fb6fc2ceefd7","Эс-Салт","32.039193","35.727214","140689"
"542a99ca-5118-45a9-aae8-445764317eed","Эз-Зарка","32.069992","36.100008","894691"
"6e5e683b-4636-43c6-b9a0-d6e9846a9793","Асти","44.929982","8.209979","71276"
"c85e4a58-c8f7-444e-b42d-0b01663c4be6","Новара","45.450002","8.61998","100910"
"ca80aad8-36f4-46e6-9f3e-d74b2ba9fed0","Комо","45.810006","9.080004","250000"
"5dc72c36-2dc7-43f3-aa6d-74d3970bc13d","Удине","46.070016","13.240008","119009"
"c17c927c-df23-46d8-ba99-4a2e0e3f5e44","Тревизо","45.670015","12.240018","177309"
"f1b6c549-6220-4fbc-b44f-7e534ef8edf1","Юймэнь","39.830035","97.729993","350000"
"0c8f525f-06e7-41bb-9139-3c6fed252097","Линься","35.600009","103.200047","534555"
"0d6e8389-bd03-409a-9aee-251777563c68","Чжочжоу","39.540053","115.789976","628000"
"77ab0d31-7114-4785-a7f1-5db57f89b1c5","Саньмин","26.229987","117.580048","209444"
"0a1d313c-6894-4870-a6da-bba47a16f334","Хойчжоу","23.079972","114.399983","289201"
"bd84104d-8bc4-45a1-aabc-e49ef5803231","Чаочжоу","23.680039","116.630028","424787"
"0b471260-b329-49e0-805a-80b341a82d6f","Анси","45.899975","6.11667","105749"
"461ba4d5-48eb-4c92-a874-32234f5a3820","Роан","46.033326","4.066666","73315"
"6f5a1443-9b4a-4880-8146-ef2ea5e0d64a","Пиньяс","-3.670023","-79.649981","16981"
"36fa0fe4-eafa-4996-a6a2-bf648309365c","Пуэрто-Вилламил","-0.933342","-91.016652","2200"
"e6b6474b-2f62-4ce6-a234-e2d9778d7000","Пуэрто-Бакерисо-Морено","-0.900011","-89.599968","6030"
"11d08129-7962-4cbd-bf61-853dc2eb1eb9","Гуаранда","-1.609994","-79.01002","27866"
"bdb124b0-c192-4555-a926-2cd09c057c29","Асогес","-2.740002","-78.84003","69087"
"2d854ade-f361-4e91-9f4b-404b1c7bbf3c","Салинас","-2.200035","-80.980003","43862"
"2cf42db0-85f7-47b3-849d-002ea5b2a0ba","Алауси","-2.189958","-78.849978","14294"
"ccb3453e-b87b-4452-bf22-8fdc5cfae72f","Сангольки","-0.310021","-78.45995","178582"
"13803b6a-ef50-4247-a077-9ed2d859dacc","Сонсон","5.716614","-75.316628","18817"
"0846a8ac-97aa-4727-bdb7-2813fcc3e39b","Согамосо","5.719998","-72.940003","126551"
"60d85d71-1760-4b36-8d46-871aedfdedd2","Барранкабермеха","7.089992","-73.849999","191403"
"dc352212-4b1f-44e0-89ac-1d910748c51c","Картаго","9.869978","-83.929978","196946"
"c49392bf-0cc1-4db8-aed2-796ac57dcdf7","Гольфито","8.650026","-83.149974","6777"
"0d6331d7-c5d1-4592-baaf-028a4715a21c","Алахуэла","10.02002","-84.230037","387743"
"0b93dc54-3f71-449a-a672-ea0f0686e9ac","Каньяс","10.429995","-85.10001","20306"
"f861417c-7001-485a-b039-fe58af165fb3","Муисне","0.609974","-80.02001","13393"
"8f8bbc9d-1ba0-4022-9874-aa41e54a4e2f","Сенсунтепеке","13.880043","-88.630001","26989"
"50b47555-530d-44b0-91ee-b0a6d4ac1a9c","Сонсонате","13.719975","-89.729986","168947"
"9e18201a-1923-49f1-9193-c36236e97683","Сан-Мигель","13.483349","-88.183336","201563"
"63a99bb6-b1c5-4b83-99ef-2453cb6a5632","Сьего-де-Авила","21.839996","-78.761947","142027"
"76fbd904-9f57-4033-b6a8-6c20d9705040","Пальма-Сориано","20.217227","-75.998808","102826"
"bf906a22-989b-446f-a086-ae7ffe31999d","Мей-Пен","17.966615","-77.233281","135142"
"273ced92-23a1-4f77-af45-947896ce50c0","Спаниш-Таун","17.983333","-76.949991","432704"
"d7a42db6-c9a5-4d83-bf5c-e1b8e0c22776","Хирардот","4.310007","-74.809992","130289"
"193b70dc-9ddd-4573-bf7c-6edc8adc7d33","Кампоалегре","2.690003","-75.330012","22568"
"f98e3e32-c3a7-465b-a10a-7a2e2be6cf46","Тукеррес","1.089997","-77.61995","33979"
"f3427c7c-d602-42e0-a07a-08caaa286814","Мокоа","1.149993","-76.629984","22035"
"398198ff-183b-4797-8a14-cee4b9bff54d","Картаго","4.74998","-75.910028","134827"
"5ef3c8ac-6b73-4a7b-938e-b5affe0f1160","Сан-Габриэль","0.609974","-77.84004","16066"
"cda5caef-0405-45c0-bd03-f85ff7d623ea","Соледад","10.920017","-74.769995","698852"
"bac21e2f-a99d-418c-b993-bf76eb93eb8a","Сабаналарга","10.639982","-74.919985","68535"
"cead698e-007c-488c-b8b5-5351c898d02b","Архона","10.260031","-75.349985","50405"
"40c3f875-bd45-4ebf-91fe-64450f9201bd","Маганге","9.229991","-74.740022","100313"
"5ab0bd65-6e01-4be6-9be1-98dbaecf9290","Вальедупар","10.479992","-73.25001","308237"
"9abf64bd-f5da-4bfe-81bd-30c97a6dff4e","Сан-Хосе-дель-Гуавьяре","2.569984","-72.639995","22136"
"76e0ceec-0403-4063-a779-524f1b0bd2a2","Пуэрто-Лопес","4.089995","-72.960028","16678"
"6bd8e582-4fe0-4969-b31b-076ed9515b30","Сан-Антонио-де-лос-Баньос","22.891121","-82.499084","42724"
"55a92478-b4bc-468b-987d-0bbb9d499101","Гуинес","22.836137","-82.028027","68935"
"121068b9-628f-41ae-9159-54cf6d8a52b1","Кайбарьен","22.515795","-79.47224","39140"
"0f69d445-5b1f-46d1-83d6-d72a19705318","Пласетас","22.315807","-79.655485","55408"
"b7f7ae36-eece-4dc5-99ac-46798b29881c","Билефельд","52.029988","8.530011","331906"
"fdd2183e-d655-4d6e-830a-a83a09979a5b","Дортмунд","51.529967","7.450026","588462"
"6f583f09-b5eb-4665-8241-b12ba442bc35","Дуйсбург","51.429973","6.750017","1276757"
"8f73b0f3-4ea1-42fb-a3d6-1382a68d4bff","Вупперталь","51.25001","7.169991","776525"
"d4ccd916-ebf2-42c7-9430-6903831d6d01","Эссен","51.449998","7.016615","1742135"
"a792cfca-6952-44c4-a4f0-74a813cbeb54","Карлсруэ","48.999992","8.399993","377487"
"33dea8a1-a711-4222-9bc1-75d91432a455","Гейдельберг","49.419993","8.699975","426590"
"04164dc7-67c1-4522-a50e-6962c0af5257","Кассель","51.300007","9.50003","289924"
"39a5a6d1-b2a4-4d32-9b71-25fe30ac7e29","Ольденбург","53.129999","8.220004","167458"
"362ba349-945b-42ea-9cd7-2fcbf95c3d23","Эмден","53.366677","7.216655","51526"
"25e571e5-ff22-4402-90a9-086b247e48d8","Брауншвейг","52.249975","10.50002","244715"
"86fa0be8-01eb-47f3-8ad6-bb2eb5f64c52","Эрфурт","50.970053","11.029962","203254"
"c3a7e02b-3699-4e4c-a2c2-d3871499bae4","Карловац","45.487209","15.547774","55063"
"9b9e7424-67a5-4bb5-b0bf-bda806d72642","Риека","45.329984","14.450012","170992"
"9421066c-60eb-4118-9a86-3dce2e1a46a1","Кобург","50.266608","10.966607","61054"
"e61165b9-45fc-4c38-b986-319dbac86c7e","Аугсбург","48.350006","10.899996","358989"
"8adf8f60-3456-4bc6-b9a6-92c3e1e4a388","Фюрт","49.470015","10.99999","237844"
"cd9c7fda-8d17-4dc5-aec0-f62d3dd39f98","Ческе-Будеёвице","48.980019","14.460037","98851"
"3ef1967a-a265-47eb-a952-813a14fb8a6a","Либерец","50.79996","15.079999","102175"
"0ccad6dc-5812-434d-95a9-dce7156bd551","Хемниц","50.829984","12.919976","302643"
"60fdd899-ee74-4d37-9a44-252e8ba9fc5b","Славонски-Брод","45.160278","18.015582","97718"
"c9c90480-4d33-46f4-bec0-287085174143","Оломоуц","49.630031","17.249996","101268"
"6fd1493f-b076-4ff4-bd35-a31891a25910","Кохтла-Ярве","59.399978","27.283337","46060"
"ff2f53d1-ea77-4c6e-9a61-9dc118d0ea6a","Гьянгдзе","28.950002","89.63333","10000"
"45f4ebe3-234b-4dde-9b63-e55788b8fbf6","Дали","34.795252","109.937775","109696"
"8d853ddb-2742-4515-8082-39f0e1e177f0","Янцюань","37.869974","113.570008","981448"
"546fff93-63bc-406e-9054-b192e92e83b2","Шиянь","32.570039","110.779998","770000"
"d9cb6012-85b8-48d8-b14d-55f10df474b7","Даньцзянкоу","32.520016","111.500005","92008"
"e89251e3-5206-41af-84e3-e63e7ed30d71","Цзинчжоу","30.320021","112.229987","520000"
"2310a558-2cba-4a75-8f6d-1b5d5a65d6e2","Аньлу","31.269989","113.670002","71198"
"9538209a-85ae-4979-bfd5-ac212ac1b528","Цзысин","25.969977","113.400044","6618"
"3f271328-e4a1-44ca-9997-d309d2912471","Дэян","31.133331","104.399974","152194"
"b7c4622a-fc83-480d-979d-c88c735975d7","Тэнчун","25.033316","98.466589","126058"
"b92b1ac2-adcb-41f6-a167-1ce70d0811ae","Мэнцзы","23.361945","103.406132","303341"
"a3fdd2e4-d1d8-420d-8e10-e7c639cbca34","Чусюн","25.036416","101.545574","254370"
"e14b1be0-84fc-46bf-9bf1-c1adca5f5bfd","Хэншуй","37.719983","115.700007","456356"
"0dc5410f-0fed-4546-a848-78066bd0741f","Сюаньхуа","40.594407","115.024338","409745"
"d88ad9e3-7565-4f6e-8656-44ac7849331e","Лохэ","33.570004","114.02998","417356"
"e7395e65-9ead-4221-9c52-6c94c7534622","Бэйпяо","41.810018","120.760009","228515"
"0c6cbdc0-bd58-4eda-995c-7245bfc730a3","Вафандянь","39.625913","121.995954","355844"
"b70011be-fcb5-4604-a6f3-1d710056ceef","Чжучэн","35.98996","119.380093","1060000"
"70ecb459-d926-4536-be71-59585e652642","Лунань","39.231958","117.776986","332793"
"ad53af6a-db42-4e29-bbaa-31f17a1cbfb0","Синьи","34.380006","118.350026","962656"
"d8f0d45c-f2bd-43a7-91c9-297d08786b68","Янчжоу","32.399998","119.430012","539715"
"95346d2e-11a9-4c50-bd31-12167d99a6c5","Линьхай","28.850008","121.119987","251759"
"4568722a-1c5a-4c8e-8287-650d8f572162","Хуанъянь","28.65002","121.250004","198713"
"7a47af7d-04a0-4332-bac5-4ac0e6420af6","Окаяма","34.67203","133.917087","866092"
"9d393839-1e59-411d-9e99-879a50cc9c50","Симоносеки","33.965432","130.945433","245786"
"b54e870c-e7d6-4337-9102-5de1fc615ae7","Даань","45.499999","124.299999","93297"
"520db736-7250-49c1-aa87-12911d5226e7","Чанлин","44.269997","123.989992","55841"
"01f6b9f3-1868-4dbd-adaf-94dc54e71d6d","Тунхуа","41.679974","125.749988","27227"
"33cb41c8-b971-4b4d-a609-be40a274f8fd","Байшань","41.900012","126.429998","330000"
"2742a285-f7d8-4370-866e-7512be359174","Яньцзи","42.882304","129.512756","488740"
"1a0b47ac-201a-497c-b03f-9503118ba478","Каноя","31.383316","130.850039","82335"
"dd280005-e076-4453-8fc8-c71f66473a03","Такамацу","34.344737","134.044779","334223"
"7e649480-ac04-4bc1-9ddd-b4a178a448cb","Токусима","34.06739","134.5525","443760"
"e1665f9a-451d-484f-98ff-32b517f7d80d","Гэньхэ","50.78332","121.516655","42849"
"ecc0b6d4-d820-41dc-9f37-8d4e973052d4","Шанду","41.549439","113.533886","18831"
"0f996ab2-735a-4a16-9076-9a75804aa7e2","Орочонский автономный хошун","50.566667","123.716676","40128"
"46b0e228-fad6-4904-bd68-869bbcdafaf9","Чжаланьтунь","48.000002","122.719992","138032"
"5f83a37a-8440-439f-a38a-734a713e8b57","Учуань","41.095514","111.440836","23776"
"b670ea94-3810-49cf-8614-0f8701856558","Хангин-Хоуци","40.8847","107.140013","39954"
"1c73fce1-6070-4905-91ac-34bcdd87f81e","Аньда","46.399996","125.32004","181533"
"1190d964-ac01-4045-a060-24a9a64c8d25","Цинган","46.69003","126.100044","64182"
"672c3980-a2b0-4345-93fb-054ddb1336be","Анъанси","47.160053","123.80003","24317"
"02cbc89e-74b0-4de8-b0e3-ffa813a0c722","Фулаэрцзи","47.209972","123.610015","289999"
"035d2b77-c6c7-49d2-a1d2-64b631628203","Цинъань","46.871854","127.511844","53206"
"475d47ae-dcf5-4808-9a26-623dfdf5a3c0","Байцюань","47.601835","126.081854","70472"
"b3855519-ca30-4a78-bd30-129670e956c4","Суйлин","47.245991","127.105978","57789"
"0976840f-28b1-4ba1-834b-9bb1bf2797b7","Линькоу","45.281899","130.251884","77754"
"8f23586f-b9db-4beb-9b68-c0c1a230bca8","Тояма","36.699994","137.230011","332812"
"486f08bf-c619-4796-b367-5f27dcea99a3","Такаока","36.670021","136.999999","170077"
"daf1208c-e3fa-4746-8444-49fe1b852e6d","Оцу","35.006402","135.867407","536976"
"be084e79-993e-474c-8747-c5a830ba6989","Маэбаси","36.3927","139.072689","344871"
"b6ce9608-e6ad-4dce-9838-a9fcbf6a54a4","Кавасаки","35.529988","139.705002","1437266"
"245e2b9c-1b55-4238-b8c7-2db97b111a7d","Кавагоэ","35.91769","139.491062","337931"
"d7b9dacf-23a0-4523-93b1-b023367bb70a","Уцуномия","36.549977","139.870005","667752"
"71c6d349-2157-4add-80b6-e1cdc6204c41","Хатиодзи","35.657706","139.326059","579399"
"0593f73d-713c-4b1e-ab51-19c348b7b3b1","Корияма","37.409976","140.38","340560"
"9940676b-3ea1-4827-8a2e-7293b16acce2","Сан-Луис","16.200005","-89.440004","132470"
"91bf7d5a-71ce-4138-9e78-2970148bbbc0","Кобан","15.469998","-90.379998","65194"
"804a4fcf-c6f2-46cf-a9f2-65ed45a11eb4","Ливингстон","15.830654","-88.756235","14350"
"311ecbf7-00d7-465c-9c6d-e4b01c98a9b8","Хутьяпа","14.289992","-89.900001","50681"
"7bd54af5-416d-4253-91b3-c61337b5e3e7","Нейба","18.466611","-71.416633","25731"
"8c466e59-7ed6-4964-86c0-220111db1243","Консепсион-де-ла-Вега","19.216591","-70.516585","163197"
"9fcc7e5b-c75a-4795-afdd-51b42a8dd52d","Сан-Франсиско-де-Макорис","19.299996","-70.250012","152538"
"bf8fe3a4-0967-4347-9893-dff9a751bd9e","Рура","4.729981","-52.330021","2229"
"7a543be2-c227-40c5-9825-353ce312f29f","Синнамари","5.380019","-52.959982","3180"
"8d74f06b-ad70-463f-80f8-65e65e63d057","Шимла","31.100026","77.166597","173503"
"14c761a4-dc8b-4016-9d55-e01541d06af6","Гургаон","28.450006","77.019991","197340"
"08207037-aa9b-43a2-b5d7-af2bbff4e682","Сонипат","28.999999","77.019991","250521"
"5f0685c9-f91f-4afb-a4af-6e893fcdca1b","Рохтак","28.900005","76.580018","317245"
"2bc7459c-c8b6-4d91-af90-deee2227fe8a","Хисар","29.169988","75.725031","544829"
"2fe25ef9-1009-4420-b70f-3e49f740c401","Бхивани","28.81001","76.125007","190855"
"56ee808d-6181-4ad1-91af-2f4b06250b44","Амбала","30.320021","76.820003","146787"
"a6ed2a19-e83c-44c7-bcc0-5b1f7d53c07e","Сопор","34.299959","74.466659","63035"
"322a897d-bbff-4fba-a85a-d956f4f68820","Силвасса","20.266578","73.016618","27359"
"7c367c19-5487-4c7e-9a48-a69c4ef1cf25","Кальян","19.250232","73.160175","1576614"
"4e3d8703-4307-4d80-9486-a57d5e562de6","Бхусавал","21.019995","75.830038","183001"
"fdda8656-649d-4b60-90a5-ad1196877117","Джорхат","26.749981","94.216667","69033"
"ea9c5697-662b-464b-8001-83cf8fba9fea","Сен-Бриё","48.516663","-2.783303","53223"
"16f2f856-7da8-40fc-9857-b6c645bea9fa","Пуатье","46.583292","0.333277","85960"
"d95576ee-8d9b-45bb-9bfa-f3d2fb4361f9","Анже","47.480008","-0.53003","188380"
"93f40999-7c2a-460e-b225-0296ce483bd6","Биарриц","43.473275","-1.561595","145348"
"91555775-486a-4c29-9cf0-f46a934ee2b9","Экс-ан-Прованс","43.519991","5.449993","146821"
"c8c5b7e7-07ad-44c5-b00a-59806ab95196","Перпиньян","42.699989","2.899967","146620"
"354d868a-857c-42a6-85b9-f006ebae9dc9","Тарб","43.23329","0.083344","54854"
"204f282a-6269-4839-aecc-d19a12e779e4","Клермон-Ферран","45.779982","3.080008","233050"
"5fabc742-f76a-4424-afe7-4afc56e920ad","Мелён","48.533302","2.666648","249432"
"a42901f1-23da-4662-8650-4de182275e36","Аррас","50.283325","2.783334","64165"
"b7a3dbca-ca48-4748-886d-ef87c4db7335","Безансон","47.229997","6.030009","128426"
"7fd14cca-eae2-4caa-afba-4858d9fcb046","Рио-Верде","-52.649979","-71.466605","358"
"d60b5839-8902-4e82-8241-cf4534286064","Чуя","-19.116677","-70.133301","20"
"7b45b0ec-d5e1-44b9-b3ab-3f4e26b256c1","Чукикамата","-22.319996","-68.929989","0"
"fee0d694-eee0-4511-a0c2-1c1922f482f4","Мария-Элена","-22.35002","-69.669996","2370"
"721bfc61-412d-4b61-81c4-7a59b2613c6e","Тьерра-Амарилья","-27.480042","-70.279984","12888"
"ebc7f62b-8bb9-4a63-b8fa-e1ec1aa95ef0","Комбарбала","-31.180023","-70.999992","5134"
"8de0c660-b07a-4faf-ac37-5561589a2b0d","Сан-Бернардо","-33.599979","-70.699985","246762"
"8e72e8c9-7535-488e-af2b-72e2fa070966","Сан-Фелипе","-32.750005","-70.720009","59294"
"1419deb3-5df1-4768-b322-8757a8b9b789","Винья-дель-Мар","-33.029988","-71.539985","503534"
"7958831d-6ff0-4e77-8f11-612b108f0b91","Ла-Лигуа","-32.459997","-71.240029","26665"
"91281988-5400-4be7-852b-b787b4fccce5","Кильота","-32.879971","-71.260002","79686"
"4c1f5834-a69d-4aa5-b190-389572146c80","Нуэва-Империаль","-38.740027","-72.960028","18777"
"53f31fba-8e22-4a57-8430-4911ae0b6285","Лонкоче","-39.370014","-72.629996","15590"
"6be9cd77-adf6-4d66-9a78-541d0e545b8e","Вильяррика","-39.280046","-72.229995","31602"
"4e75f89a-e664-42d8-8626-20a38982ed2b","Тольтен","-39.216591","-73.212338","2293"
"a3590bf6-bb69-4e2a-825b-040eb63dd0c9","Лонкимай","-38.433327","-71.233285","10237"
"17cdb485-804e-4802-a980-f45f114e0e12","Анголь","-37.790007","-72.710017","44856"
"4d943194-7d44-4e09-a99f-db17a7cd3c3d","Кольипульи","-37.959971","-72.430008","16392"
"6ba7b60e-bd96-4412-b479-ba2a049fae14","Ла-Уньон","-40.289958","-73.089968","26298"
"13b0d846-4229-4d5d-a4b4-26f4c68cb098","Рио-Буэно","-40.340033","-72.960028","15456"
"a4541dfd-cffa-45aa-9c99-cc899f3b4069","Коронель","-37.02995","-73.160015","92940"
"b5c44aa8-43ba-4aa9-81a4-0ece3291d543","Талькауано","-36.716688","-73.116659","288074"
"9f7a9034-dfcd-442c-98a9-9c7507c1600a","Кириуэ","-36.280022","-72.530002","6529"
"63d8da2f-83a9-4554-a451-8562cb1a1f3c","Куранилауэ","-37.48","-73.340004","30611"
"84f852fa-b4f1-4317-a78b-bc45b6aa78a2","Санта-Барбара","-37.670015","-72.019982","3494"
"4f4fd441-48e7-4c96-a285-a924f5a09123","Пичилему","-34.380035","-71.999983","11603"
"6c678773-82a8-4da1-b56d-4dee2c799f01","Сан-Фернандо","-34.580022","-70.989967","60746"
"7ef10e30-6b1c-43b8-a235-be0d851095c3","Пуэрто-Варас","-41.329998","-72.99","24958"
"7066118e-ea52-4c18-9d9a-edcaaf24fa42","Кальбуко","-41.752201","-73.141591","12490"
"227ef268-eb74-4d8b-8e15-cfaa670604e5","Кастро","-42.480762","-73.762334","29926"
"708228f6-d178-4883-806a-ef8977ecedd7","Чончи","-42.610023","-73.80995","381"
"00c79e9b-263a-4aa1-9388-2926991a6286","Линарес","-35.839997","-71.589982","81015"
"3b49a25b-fc97-4e72-a815-2f8512a871c3","Каукенес","-35.960042","-72.319989","31362"
"9fc15a40-e967-48da-bc71-33b9a01b2126","Пирей","37.950021","23.69999","466065"
"5912b23c-d042-422d-ab8d-8b32aece84ba","Волос","39.36996","22.95001","110632"
"b6d62019-1b40-43be-983c-a2257f69674d","Ханья","35.512211","24.015578","78728"
"62702c1c-d8e1-4360-bc55-41ebad398e5e","Кавала","40.941211","24.40176","59240"
"9ef02d9d-eb3a-44e1-9b67-585e6fef976a","Александруполис","40.848619","25.87441","52979"
"956c3576-1881-461a-b03a-5fb1311fdc30","Кутаиси","42.249991","42.729991","183945"
"1d957b53-2361-4f48-b4da-70ba2a14da5e","Цхинвал","42.232498","43.975031","38502"
"3f4e43e8-cf83-4ed4-829a-f5d7c07f84c5","Беэр-Шева","31.250016","34.830008","206408"
"38c28d25-5ae4-4a53-8051-471dc6f1a188","Савонлинна","61.866623","28.883343","27353"
"27771fe8-9da5-4c47-b24f-2959f6db45b5","Пори","61.478895","21.774939","76772"
"3b086564-5889-4ab0-affa-331faf0eeaa7","Жосалы","45.487726","64.078042","20065"
"327f755f-7da9-4adc-a19e-895136a12fa1","Мервдешт","29.801448","52.821468","125000"
"2e601893-89e8-4db5-b7ad-45aa0934cf44","Имамшехр","36.422879","54.962888","131889"
"c6fce1fd-1d30-472c-a04c-3cdd40df43fb","Варамин","35.31659","51.646604","179603"
"f975c2c0-c0b7-40a5-97e2-85922b174253","Месджеде-Солейман","31.979998","49.299926","153663"
"cd934e58-9d49-4d9c-b84c-9487c625669e","Боруджерд","33.919957","48.800008","251958"
"030a1f23-71e8-437c-88a1-c8b0ca717d47","Эз-Зубайр","30.389164","47.707982","262219"
"08a43487-df5d-49fa-938f-d2cf2f0017fa","Эд-Дивания","31.988938","44.923966","358408"
"338b6a04-1b0b-4419-9ac9-25689f2063bf","Эш-Шатра","31.417526","46.177223","161949"
"22d0fc36-6187-49e6-83f3-babd66096001","Мелайер","34.319984","48.849979","176573"
"50126a64-bab6-4321-b6da-fec06beb8d62","Зенджан","36.670021","48.500026","357471"
"505cbe50-21a8-482a-9613-f1a4e7a08863","Урмия","37.529995","44.999982","577307"
"bcfd74a2-08d9-4165-8d60-9bf0dbaf41e6","Ахар","38.482908","47.062905","103639"
"bee43536-9666-4c20-b9c5-f14e31602bec","Сенендедж","35.300002","47.020013","349176"
"050d992b-5182-4257-a4e8-2cb08ab26c3b","Мандали","33.743611","45.546357","29785"
"8e8a26d1-754d-46b9-917e-2cc9f9e4a605","Нишапур","36.220023","58.820017","221700"
"a2547e27-6bd0-42a4-a930-6fa9a92c77c2","Боджнурд","37.469998","57.320005","208582"
"46d645d7-4391-451b-8486-f13099702e20","Сирджан","29.46997","55.730024","175000"
"a30fe8f5-7661-42d0-bf69-b3b1221ba264","Хошиарпур","31.519974","75.980003","158142"
"a34fe214-a779-4e6f-9310-f4e002c1b51d","Аджмер","26.449999","74.639981","589985"
"10d8181d-a7ab-4076-8772-29fc4e836523","Хатхрас","27.599981","78.050006","126882"
"bce99ae6-50b8-4788-a6e0-d364da4258a7","Ситапур","27.630005","80.749996","164435"
"894c3ef4-da54-49dc-aa1e-eb07cdec5d3f","Пилибхит","28.639995","79.810002","131008"
"5fde8674-a04c-45fc-9340-e0bb64d5021b","Бадаюн","28.030006","79.089994","161555"
"4f8aa07d-b0a0-4213-b25b-b3b651f5ddfc","Фирозабад","27.149982","78.394946","306409"
"d284c44c-2570-4bef-bba8-36143069ccff","Матхура","27.499987","77.670029","330511"
"80101492-057d-4c9d-9757-fb1812271577","Буландшахр","28.410371","77.848416","198612"
"5dfa85bd-345a-4bf8-b5b8-e829897c2827","Хапур","28.743658","77.762788","242920"
"3bb98cba-9a6f-4d06-a7bd-f044f725c8be","Музаффарнагар","29.485008","77.69504","349706"
"6e09dc7d-28b7-41c4-b50e-2b8094015eea","Гангток","27.33333","88.616648","77900"
"f9235aeb-5d53-4bae-bbd7-6c0c66ff5e45","Виборг","56.433337","9.399984","34831"
"24ba8684-737c-49aa-9667-07c64ae30ac1","Роскилле","55.649974","12.083335","44285"
"96e86903-48c7-4956-b201-3b4e52daf52a","Эр-Рамади","33.420013","43.299982","295121"
"23d1f087-b49a-43ff-a38e-2fbda070e189","Эль-Мусайиб","32.778631","44.289999","76454"
"ebdaf457-4608-4e34-b8ab-00a52e7c634c","Суботица","46.070016","19.680028","100000"
"db996407-09b7-4f97-8f6a-9a1bb9f1ac91","Гражау","-5.809996","-46.149984","30217"
"b7610975-f4f9-4da0-9b73-3ccae014ae71","Президенти-Дутра","-5.25003","-44.519981","30330"
"d7f64d74-3a38-4150-9713-cc1dde5c6fc9","Итапекуру-Мирин","-3.400013","-44.360016","34943"
"24bcf1e9-e4e3-47b9-9a11-7e173ccadd59","Сан-Жозе-ди-Рибамар","-2.549988","-44.069982","55265"
"a4afd1fd-90c8-4c73-bd82-05006980e7da","Санта-Инес","-3.659998","-45.390031","67424"
"18f6873c-c8a1-46eb-bdce-dbba4fd3fa5d","Розариу","-2.940042","-44.260022","6798"
"e8df1322-70bc-4ea4-9a89-5dc17d3595f4","Тимон","-5.114999","-42.844967","203157"
"e051a229-7fb2-4160-8c1d-c3c8f3d3b389","Капанема","-1.190019","-47.179999","47766"
"531f2275-1a0e-4bca-b2bc-59bb1e2b00a9","Портел","-1.949973","-50.819984","21315"
"184a4d6e-ba87-4ee7-98c8-52d11f13abdc","Итупиранга","-5.120012","-49.300025","21301"
"6256bf0f-4fbf-4d17-b3b8-7ad8d76f6f6c","Пимента-Буэну","-11.640027","-61.209995","25762"
"2c5985b4-3852-4ac6-b71e-d9785f4246a2","Понта-Поран","-22.530009","-55.729968","94331"
"a7177f22-fd77-474f-a38b-2f6a1db0ab58","Маракажу","-21.610013","-55.180028","22690"
"906be862-8339-4fab-a523-5f6688670633","Жардин","-21.479943","-56.15002","23780"
"91a308ef-df8e-4e4f-9bff-919514cadf08","Трес-Лагоас","-20.790011","-51.720006","78712"
"5d85cdd7-c0b1-45bd-a8a3-dcf3f847bab4","Гуаньяйнс","-18.780005","-42.950025","23727"
"866bd66e-20aa-488b-a08e-a89b4ceb3795","Леополдина","-21.530018","-42.640044","46742"
"e20b1d6b-3e53-494f-96c0-8a0f52f270d1","Нова-Лима","-19.980035","-43.850021","88399"
"0a1a4919-5bf5-401c-87a9-dfddf38f0a9f","Позу-Алегри","-22.220002","-45.940023","115201"
"f10ee7f6-c985-4042-bf5b-7641dc9d8ab4","Итауна","-20.06003","-44.570029","77400"
"b41349f6-e93b-48ed-8b0d-725260e9c700","Каратинга","-19.790021","-42.139997","60066"
"2881ce4e-3400-4e84-82e1-a80b2ff68ec9","Диамантина","-18.239986","-43.609984","37343"
"a15aa8fe-4fd2-4670-9740-0d3f3041217d","Нануки","-17.839959","-40.350028","37824"
"a62ac7f0-7006-4c49-bd6f-778d4643945c","Барбасена","-21.220011","-43.77","122211"
"040a893a-fd9a-4943-a8f4-d87d68da88ee","Посус-ди-Калдас","-21.780029","-46.569985","146588"
"24a97819-8175-4d1f-a352-9686f130fea7","Гуашупе","-21.290033","-46.70995","47889"
"e5c7572a-b159-4d8e-9c35-f6f6df0976ac","Сан-Жуан-дел-Рей","-21.130042","-44.249997","78592"
"bd614552-2ece-44ff-bad4-e7fafce31bc4","Муриаэ","-21.130042","-42.389981","91173"
"af95d78b-81b7-40da-b6f4-2069c3f7611e","Пасус","-20.710016","-46.609982","98752"
"a353322d-ad38-4410-b555-6c4baab02043","Консельейру-Лафаети","-20.670019","-43.789999","111596"
"b34e8705-b4ae-4597-b44d-6d7b0950f2ce","Формига","-20.460006","-45.430028","56404"
"72abaae1-10bd-4880-abd6-a1be33b9ac73","Фрутал","-20.030006","-48.940021","40931"
"3b715c24-63be-4331-b85e-e319924be31e","Итурама","-19.729973","-50.200021","29805"
"4405495f-6b46-4f7b-b5a0-3e10ec8fcf5d","Итиютаба","-18.970019","-49.459989","85345"
"0000914f-dad9-4a9b-b369-bd4fc6ea81cb","Арагуари","-18.640013","-48.199988","96565"
"f6d1fc83-b1eb-4feb-a1ac-a8f2a1d6411d","Алменара","-16.170035","-40.700007","29333"
"e45fa0da-7189-431b-8f1a-11ddf7bc02de","Варзеа-Гранди","-15.650015","-56.140021","249752"
"5b735aef-fee5-4b79-b9db-5e40f32be6b0","Касерис","-16.050042","-57.510015","85274"
"672c65f6-518f-4079-adfc-a0b1644c36f1","Сантана-ду-Ливраменту","-30.880042","-55.530006","89694"
"60dda75b-4ca4-4e50-b43c-470aa0eeeddd","Каноас","-29.919997","-51.179987","600000"
"77eec619-d329-4c06-ad02-3d2197b23c65","Куараи","-30.38002","-56.459949","23229"
"ca936dbe-05d0-4782-8575-78f20d98779a","Санта-Витория-ду-Палмар","-33.520035","-53.369983","27775"
"f65291ed-6464-4596-8b4b-a13ca8511a7a","Сан-Лоренсу-ду-Сул","-31.369986","-51.980016","25340"
"44184d4b-b6ed-4f0d-bbf0-30159291df66","Канела","-29.360031","-50.81001","60806"
"9fc87cd2-7639-410a-8208-ffb744432d1a","Сан-Габриел","-30.320024","-54.320028","55434"
"c162e881-f032-427b-b381-6e541bbcbb95","Розариу-ду-Сул","-30.250002","-54.920018","36721"
"604b7f6e-9273-4a3b-ae4d-eca39a149be3","Кашуэйра-ду-Сул","-30.029964","-52.909985","74694"
"66704eef-2d1a-4a2b-abda-7fb1629e15de","Озориу","-29.879999","-50.269991","34628"
"52322e5b-9271-4300-bab6-391559d41816","Санта-Крус-ду-Сул","-29.710035","-52.44004","113625"
"5f830f08-429c-4474-98bb-2084f8c2466b","Сан-Луис-Гонзага","-28.410011","-54.959989","31798"
"4dd82157-c95e-4914-b340-9373842f5aef","Санту-Анжелу","-28.300044","-54.280031","65420"
"12c11216-7724-4c92-a102-c32b6c100286","Каразинью","-28.290019","-52.800044","59417"
"d31adec2-3e6a-46c4-a6ba-f0e7befafdad","Эрешин","-27.630007","-52.269998","96087"
"761fba27-2546-4bab-8691-2b2a9e0027a1","Сальто-дель-Гуайра","-24.089965","-54.26998","36426"
"aca263d1-99ab-49b9-b8b9-a599fe97002d","Палмас","-26.48","-51.999989","39150"
"bd5bb9f0-ad06-47d7-a507-c9bdcf256fb0","Арапонгас","-23.410007","-51.43005","97512"
"4f46c4f6-ab76-443e-a427-4c542bdcc5d4","Паранагуа","-25.527876","-48.534454","141013"
"cfa5dfd0-1b02-40cf-b80a-cbda613ae80d","Сан-Жозе-дус-Пиньяйс","-25.57003","-49.180006","665063"
"b068bc7f-4e0e-4fde-ba95-1c3dde9ccb6a","Гуарапуава","-25.380015","-51.480021","150850"
"4359dadc-806e-4e8f-8e71-3f0916b10062","Риу-Негру","-26.100023","-49.790021","65597"
"618caf2e-dfc7-495f-99fd-fa691cf4c0ac","Апукарана","-23.549998","-51.470021","107085"
"1a7130fe-fb3f-4b3a-9486-44fc52a4e3c4","Лапа","-25.760044","-49.729998","25621"
"b755fd4c-3eb8-4052-8034-7ce8f2c53fb0","Ирати","-25.470036","-50.659968","45830"
"4bbb27b3-74c2-4026-9d12-71c5df0d170a","Кастру","-24.790026","-50.009981","42091"
"2907a234-26cf-4a18-ab8f-2e72adf79784","Телемаку-Борба","-24.32995","-50.619996","58880"
"24804bc9-eaca-4dda-ba06-78dbfebd5eb7","Жакарезинью","-23.159944","-49.979983","35090"
"91079b53-5e6c-4d3d-a452-6025acc4b96c","Конкордия","-27.230032","-52.030013","55367"
"9a0cea13-8e2a-49be-9531-cf91575c0abe","Блуменау","-26.920025","-49.089986","293949"
"604ff792-c6df-4d8f-873d-ed18a7fc9929","Бруски","-27.129986","-48.930021","88284"
"0b5f2911-0674-4fc5-93d7-84d02f2968e5","Арарангуа","-28.940005","-49.499987","43444"
"2d64804e-2664-4708-85ea-a6983c47043e","Жарагуа-ду-Сул","-26.48","-49.099985","130130"
"6c368c98-24dd-4aa0-8099-e3bbda56320f","Тубаран","-28.480033","-49.020016","92275"
"aaa3a191-8426-4261-abce-8d2d1f59fe0b","Лагуна","-28.480033","-48.779979","39711"
"5ca8e18e-99ca-4f69-b099-a0328bd4ebf5","Жоасаба","-27.170035","-51.499968","38876"
"2a029615-02c4-4704-bd20-5dc9cf53e350","Касадор","-26.770008","-51.020023","63726"
"94f11aca-3c1c-4aa5-976a-22404752e0ac","Каноиньяс","-26.179967","-50.400009","41498"
"56fab08e-e0f9-4e22-9906-0ba05453950a","Камосин","-2.899992","-40.850024","44481"
"c0f964d1-7047-4004-be80-9ccd87a4d13f","Русас","-4.940023","-37.979992","39465"
"5df9e5c7-c3fb-4f74-8184-111ea2633a26","Собрал","-3.690022","-40.350028","157996"
"973aea7a-b69e-4431-8ea5-fc8850ec9e52","Игуату","-6.359988","-39.299989","70380"
"dc06fe7a-dd1b-4038-b5c3-21be3373a4c9","Кишада","-4.969995","-39.020006","49328"
"3ff5489c-8366-43d9-824b-350e64918c42","Канинде","-4.350033","-39.309988","42720"
"13ffcee7-e6f1-444f-a5ed-b3dfdf5fdab4","Кампу-Майор","-4.82003","-42.18002","31739"
"9cd20730-531a-40b7-bf86-2bab71a2a4c9","Баррас","-4.250039","-42.299987","21597"
"81f1cf5a-a78b-4f56-a45f-96e528f3544e","Риу-Ларгу","-9.480004","-35.839968","158545"
"144cfe19-1697-4bfd-a413-a4f3b38085bb","Палмейра-дуз-Индиус","-9.416597","-36.616639","41095"
"d93772b3-7e36-4b1c-9929-3c31f162123b","Санта-Крус-Кабралия","-16.280002","-39.02998","19545"
"30566fea-83fb-4c87-b6bb-cd0b05428fdc","Паулу-Афонсу","-9.330659","-38.265659","85350"
"40cc94af-dfbb-4347-85b9-8debb23733f4","Брумаду","-14.21","-41.670025","41989"
"e5bffbe3-c82c-475a-b9a9-ee8d92def88a","Жагуакара","-13.529989","-39.97","41498"
"5b9fd202-b438-4dfe-a59e-bb60adf502fa","Итапетинга","-15.249988","-40.249983","59721"
"b856d8dc-86c1-40d6-bffb-51f327ff5202","Убаитаба","-14.30002","-39.330013","28375"
"e8e30a1d-80d0-4ad5-9a4f-37c7ac39f84d","Кашуэйру-ди-Итапемирин","-20.850008","-41.129981","187019"
"c0da63f3-b0f8-44ff-ac25-63cb7588ed3b","Барра-Манса","-22.560033","-44.16995","169386"
"c827ad3f-8fb9-4f96-b1d4-9c624626a7f8","Нова-Игуасу","-22.740022","-43.469967","844583"
"d47e2370-9549-41fe-bb18-cb8d1d29d7a1","Дуки-ди-Кашиас","-22.769994","-43.309977","842890"
"4716f3b2-e9ae-4c72-99a3-a9c66d092558","Нитерой","-22.900012","-43.09999","1500513"
"8163f064-2baf-41ef-a402-2591de73ab81","Кабу-Фриу","-22.889987","-42.039977","261721"
"67cd442b-9af8-4d41-8e44-cfb8e351f291","Макаэ","-22.379992","-41.789992","143029"
"c6886300-f763-4799-9a6e-98589310cecc","Мирасема","-21.410025","-42.199967","26684"
"93e70f29-3fe1-4c24-9827-6309d1f305a4","Аподи","-5.650005","-37.800003","16757"
"02973ff6-f638-406c-9899-ba21bbab31dc","Санта-Крус","-6.219996","-36.029982","27775"
"a3e73666-081a-4b7b-9bb4-aa6bdbf90739","Селкирк","50.150026","-96.883322","9986"
"3b5292e0-30d2-41f6-bd17-4d3b39c9bccc","Беренс-Ривер","52.366557","-97.033313","892"
"35795167-f0b2-4e25-bb98-71494de9ecaf","Пуктаваган","55.733276","-101.316617","431"
"47a3c510-4fa7-47f6-95cd-9ee75513a60b","Гимли","50.633303","-96.999981","2623"
"73ac8987-1e48-4661-9391-acafdbe6759e","Айленд-Лейк","53.966588","-94.766578","10"
"fda6b208-a1e3-4124-8421-f8d433bfcf3d","Мелвилл","50.933311","-102.799989","4279"
"34eb36a7-d26e-4473-ba44-57d76403d4d7","Уэйберн","49.666567","-103.850003","9362"
"7ac914aa-df3d-4f41-9d27-b79ed8ee923f","Ла-Рондж","55.100008","-105.300017","3783"
"dad6d39a-f5fc-4ec7-92e2-e541f8f199f4","Стоуни-Рэпидс","59.266575","-105.833266","152"
"dce07cc5-e390-4d79-9f87-06fc0ba31675","Камроуз","53.016698","-112.816639","15808"
"c69912d3-5aa5-4937-84f9-b2f7489b539e","Хинтон","53.399982","-117.58335","10265"
"ca799e92-9ea1-410c-9ffd-6f80a5a2824b","Вегревилл","53.499976","-112.049967","5813"
"38535e46-60d0-41ba-8038-190ddc6ff1be","Стетлер","52.332967","-112.683288","5494"
"375ef01a-ce6f-4149-9fd8-4bee73e2c0f8","Лак-ла-Биш","54.77194","-111.964701","2986"
"6d16b8f1-5e54-49a7-8df4-02f6d2dcbc18","Ветаскивин","52.966572","-113.383297","11823"
"a04d7a70-2e44-4a51-a0ef-353cc6f853da","Меандер-Ривер","59.033282","-117.682982","200"
"b2976b70-50e3-49bd-8651-f26bdcdfcebe","Крестон","49.09996","-116.516697","4816"
"dad8f56a-8d80-4573-aef6-21e3fe464c4e","Кранбрук","49.516679","-115.766665","18610"
"0a012d69-af82-4275-80f8-bf7158375328","Террейс","54.499993","-128.583325","19443"
"e379525b-fea6-4ac1-9742-52d47b6072d4","Чилливак","49.166649","-121.949983","51942"
"f5cda894-7fe4-438d-a6c2-e217e6990ee2","Холл-Бич","68.767467","-81.236083","654"
"237a3d73-720d-4ece-b8be-70d65abbb6aa","Лутселк","62.400053","-110.733329","102"
"d0f73f7c-625d-4609-a64a-a67f5d6edb98","Хей-Ривер","60.849993","-115.700003","3900"
"3b97e172-873f-48cb-adeb-ca7a1b21a7fc","Дейлине","65.183346","-123.416664","525"
"f4baeafd-54cd-418f-b275-63bcb85a33df","Полатук","69.383322","-123.983321","294"
"b6509b63-b9e9-4a92-9b76-f917fac464fd","Цигетчик","67.433286","-133.749986","175"
"fd9757d6-8604-43b2-8fc5-338ca3b69a14","Оуэн-Саунд","44.566645","-80.849985","22625"
"aa0918e7-a6f6-4114-aa13-890037e9573b","Ориллия","44.599977","-79.416662","37483"
"97963cf3-444b-4d74-bf6d-bfa99668bfec","Капускейсинг","49.416685","-82.433325","9240"
"1be0fa7f-5ab8-4bce-a063-fd1c7d7bc12c","Тессалон","46.249979","-83.550001","1464"
"6eb1afaf-4b74-4001-8d01-d636c40c2490","Джералдтон","49.716641","-86.96664","1290"
"23f6d391-9a06-456f-a8f4-c4a3926ef9f2","Бельвиль","44.16667","-77.383349","43990"
"c8dcbf59-45e9-48ca-90d5-7f661b01b627","Сарния","42.96664","-82.399968","144172"
"1bf20c0e-b5c9-4e44-89ff-ac96a6fa7fe3","Питерборо","44.299969","-78.333265","83627"
"d8eaadca-baad-4072-b06d-4cd9efde8577","Ошава","43.879995","-78.849978","450963"
"46078e02-ef4a-4b6f-9a0b-ef50247e8470","Лондон","42.969999","-81.249987","346765"
"2c46ba31-6816-466a-b133-980159f69488","Китченер","43.449995","-80.500007","417001"
"77a5ffa8-6954-4ab3-8762-bd94315ffc72","Темискаминг-Шорс","47.500006","-79.666647","5203"
"e72f956b-39f9-4ed0-95f1-5b9428202c99","Броквилл","44.58928","-75.695313","26458"
"0f117de5-5e67-491d-bea1-d02d8dd5e1f1","Биг-Ривер-Хаус","52.949984","-89.883284","10"
"7f7a972c-e18b-4952-a936-099a06cec7ed","Пор-Менье","49.822578","-64.347995","263"
"c9fd2172-c50e-4f88-b866-51b2de766e08","Ривьер-дю-Лу","47.833294","-69.533312","16403"
"46724cb1-8d79-42e2-828e-f5f27eb6c7c4","Дрюммонвилль","45.883335","-72.483364","59489"
"96f754cc-660a-452c-809a-ca99f0162bbc","Шербрук","45.400005","-71.899989","139652"
"b9334dad-f540-45fb-9d2d-abc7c5faa1c7","Кап-Ша","49.09996","-66.683305","1484"
"198f52fe-3ca2-4c06-aec9-c0d037251242","Бэ-Комо","49.222666","-68.157995","10435"
"f3d0048b-0add-40b4-be75-e5ad44d94c8c","Наташкван","50.191341","-61.810656","722"
"daacc671-192f-49d2-ada9-3461058de5c3","Эстмен","52.233335","-78.516691","335"
"cc619a8c-dc91-44aa-b1fa-b0a803914732","Шеффервилл","54.8","-66.816656","471"
"92a3335e-806e-4b36-9129-197bb3a4dc47","Саллюи","62.182599","-75.659501","106"
"8fce1f0e-1891-419c-9cc9-b81f7ebe1c91","Эймос","48.566634","-78.116664","10516"
"3bc284af-5fb3-44a7-8f5c-fa40850b99e7","Жольет","46.033326","-73.433306","45361"
"3513f586-943e-4607-b627-04ede2182f4d","Сен-Жером","45.76665","-73.99999","78439"
"e2a98ce0-e75d-4603-bfb1-44663db05ee6","Сент-Огюстен","51.24231","-58.646999","3961"
"81c5aa65-34de-42b1-adf9-baab00a1af80","Руэн-Норанда","48.250012","-79.033249","24602"
"c6facc3c-5b8a-4b03-8fbf-fdd02a584c2c","Ла-Сар","48.800005","-79.200034","7206"
"c2b8e9d6-ef42-4814-82ce-eb019f1d4471","Нью-Гласгоу","45.583276","-62.633319","20322"
"8dcf5892-bb84-46c7-ae6a-e4c2bc04926e","Ливерпуль","44.039959","-64.720014","4331"
"6bc672ca-d14b-41e4-8f3f-c15f89008115","Амхерст","45.816569","-64.216582","9336"
"ca3ec4fe-36b4-46ac-b327-f2f5fc51469f","Баддек","46.099988","-60.753977","852"
"dd53cbbc-ce2c-48d8-b4bf-cd9d6723faef","Дир-Лейк","49.1744","-57.426919","4163"
"b62fda05-1ee8-457a-937d-f8130845226e","Ласци","49.967013","-55.583","817"
"a58c6712-04da-4915-9cbe-be19b4946f62","Хопдейл","55.44996","-60.216671","442"
"96f5d38b-567c-4fb1-9633-9d6401d0ebb4","Хаппи-Валли-Гуз-Бей","53.299988","-60.299999","7572"
"5eaced78-156b-4a45-a0f2-07d00d195f6d","Порт-Хоуп-Симпсон","52.533291","-56.300011","197"
"526f001c-d6b9-4d28-b0fc-a7d3f194db15","Крагуевац","44.01996","20.920004","171197"
"37eafe61-378d-4e80-b27a-24d3f9f978fb","Зренянин","45.378637","20.399468","64053"
"649a6b91-7756-4b4e-8356-981772488882","Вейнтиочо-де-Новьембре","-51.65004","-72.300016","5300"
"92de07b1-7c50-4587-b4c1-38bd0a7315e8","Гобернадор-Грегорес","-48.766598","-70.250012","2519"
"f6de8c81-d1fe-4348-bd49-bc29f04f4dc1","Команданте-Луис-Пьедрабуэна","-49.974549","-68.903473","410"
"7f7dd127-f045-4bc4-af18-2a024f2b1585","Рио-Майо","-45.683376","-70.266574","1825"
"70ee918a-6721-474c-84b9-874b9d261013","Альто-Рио-Сенгер","-45.033286","-70.833284","1548"
"9de66243-6ac2-45e9-a883-47ed569d8491","Эль-Майтен","-42.050006","-71.166623","4269"
"806f832e-5501-4e65-b34d-8d7f0891bc5b","Пуэрто-Мадрин","-42.770013","-65.04002","64555"
"32a172b7-3677-4d9a-8690-cb1958f75b82","Трелью","-43.250036","-65.329951","93442"
"5ae2554b-feae-4cfa-8b96-7c7009f85139","Лас-Эрас","-32.825039","-68.801677","66663"
"806b8ba6-ac2d-426a-b257-a1cad847182a","Сан-Мартин","-33.069985","-68.490016","117399"
"d635a7d6-5d36-4000-856c-95aaffa453b9","Успальята","-32.593115","-69.345985","2390"
"a7ca291c-7e20-466a-b70a-208d96a70606","Кутраль-Ко","-38.940015","-69.240022","47814"
"0abe31aa-dd79-4134-800e-f125c7c19f17","Пуната","-17.550002","-65.839971","26323"
"7cc77e3c-b741-48fd-9fdd-cd09d19f2b4f","Клиса","-17.59","-65.929992","15816"
"931c73c6-624e-4c85-8b6e-b418092787fe","Кильякольо","-17.399986","-66.279996","227052"
"ea4eeb4b-c111-47c0-952b-c1c8f8fbf768","Пуэрто-Вильярроэль","-16.870044","-64.78001","1778"
"302070f9-c66d-4aef-a179-6c5ac45ef0c9","Тарабуко","-19.180032","-64.91995","2428"
"85f6f3a9-b87b-4fd6-822c-9bde2d7fbb93","Гуаярамерин","-10.829999","-65.409997","36008"
"ef957e3c-0674-438a-84fd-52ca63f16c1b","Санта-Ана-дель-Якума","-13.760001","-65.579961","234478"
"be38a524-b870-4edf-9bf4-e93c31dc8f39","Баурес","-13.580012","-63.580057","2422"
"0a05563c-ca01-47d6-9186-bd7a56ccdbbc","Морриньюс","-17.730043","-49.109985","34143"
"7d31ea35-753e-48ec-a065-b85097053957","Серис","-15.303318","-49.6052","18759"
"5423158c-6d51-407b-a835-740771031331","Каталан","-18.180042","-47.950004","63544"
"1c773d11-d1ee-4241-884b-b499ddccef1b","Кристалина","-16.769998","-47.610025","36531"
"4e937c03-0121-4a5a-bd66-e5a5fa12b50b","Триндади","-16.650006","-49.499987","97521"
"c710ee3d-8938-4bba-ae12-d2c4d76c00a3","Ипора","-16.450018","-51.129991","28254"
"93b1d255-3bf5-4d91-8593-a960c2ebde21","Иньюмас","-16.359998","-49.499987","44058"
"664716eb-3049-4a99-b996-ad89baa670d8","Итабераи","-16.019967","-49.809968","22129"
"60e2aa7a-c9ff-4659-81ba-bd89931a9062","Пунта-Альта","-38.879967","-62.079968","57209"
"31bcd69a-f846-4929-b806-84fa753ae48f","Сан-Николас-де-лос-Аройос","-33.330021","-60.240003","127742"
"4166b643-db23-4af3-98b6-0ebeb5c3f1a8","Кампана","-34.159996","-58.959978","81612"
"bdf3b4a4-69cf-42ca-b8f1-220b5970c85e","Чакабуко","-34.650044","-60.489988","34587"
"90fc0f8c-8c72-4616-954f-c379452a75ca","Мерседес","-34.660018","-59.440026","52949"
"84ab70b0-cbff-4658-a7f3-19f8e8d5536e","Линкольн","-34.880004","-61.539949","24798"
"86de7e39-38d9-4c38-9d1a-15273e3772ba","Чивилькой","-34.899951","-60.039989","54514"
"cacbc8c9-f7fb-422f-a8b5-4195db9a8dac","25 Мая","-35.429996","-60.179981","24668"
"610aa16d-3c13-4d7f-b1ba-773d878a9b0a","9 Июля","-35.445964","-60.889989","34718"
"18350fbe-e432-4b8e-9b5b-53e11cbc4eb4","Долорес","-36.330045","-57.689978","25190"
"0f6f0c34-b8e7-4cf4-8ade-9301b4805768","Педро-Луро","-39.483341","-62.683316","7100"
"8fb9867a-2232-47ff-9e5f-14a5285c4163","Трес-Арройос","-38.369972","-60.269949","47136"
"5671989a-ae98-462a-bc7f-00f8910899ae","Коронель-Суарес","-37.466616","-61.916619","27000"
"ea0fd533-b1e1-4ffe-8fa6-9790a719bc24","Балькарсе","-37.833312","-58.249995","18967"
"9d837960-d2b1-418c-98f0-b5a6a5c794df","Вейнтисинко-де-Майо","-37.800033","-67.683295","17430"
"7579926d-1fd1-44f0-a038-9eb998980b58","Хенераль-Рока","-39.019958","-67.609967","73212"
"5219e83c-f97d-4ced-bf1c-84692445b34d","Комальо","-41.033324","-70.266574","741"
"3543dd07-c3ff-4992-aaa9-aade268db853","Инхеньеро-Якобаччи","-41.300026","-69.583309","5719"
"011a62ac-e8ce-4ae3-9e7e-eb0e77ea9502","Хенераль-Конеса","-40.100047","-64.433287","2958"
"a42620df-116c-4ed9-a9a0-0197fb9344af","Чоэле-Чоэль","-39.26661","-65.683314","10000"
"7237aecf-5323-42d7-97ba-97b903f1f052","Сан-Франциско","-31.430034","-62.089968","59062"
"67f311c3-c689-4a87-8ecb-a7ee6e15d979","Альта-Грасия","-31.659994","-64.42998","40384"
"3f2d0135-68ab-4830-bd7c-5e08b33cac98","Вилья-Мария","-32.410026","-63.260025","92453"
"c9d5d656-7e72-4bd7-91ec-42f3391a690a","Бель-Вилье","-32.60004","-62.679957","35105"
"114589cc-44b4-4c18-884d-7fd7689f6c58","Вилья-Румипаль","-32.183321","-64.483284","1269"
"df550e49-bbb1-40e8-8c81-379d82a4dc6c","Вилья Карлос Пас","-31.420009","-64.500001","69451"
"b945c5dd-36e4-45a8-b234-ed856fc0a732","Чумбича","-28.866624","-66.233306","2572"
"705087ae-4f2c-4bc7-99cc-3c116caf9bb2","Тиногаста","-28.066622","-67.566584","587"
"052b60fa-2b17-4476-ab81-4b3e705ab079","Абра Пампа","-22.716664","-65.69998","4480"
"30141c8e-ff5f-45ce-8fec-8c07869df117","Умауака","-23.199994","-65.349949","11369"
"173be58c-5dad-4a26-a08a-dc7a66ae941c","Сускес","-23.416673","-66.483317","1093"
"f182c8ea-6307-43f0-a9d4-957e265ecbfb","Чепес","-31.349987","-66.599951","6020"
"1fec8873-f41c-46af-80f4-39383ec0c388","Якуиба","-22.030039","-63.699998","82803"
"6796c03f-8dc9-4834-a1c1-b0923c4a0b4d","Тартагаль","-22.550007","-63.810018","60819"
"afa6fae9-5503-4c3b-b282-ae8a5a82bc94","Хоакин-В.-Гонсалес","-25.083341","-64.183354","13376"
"abdf0fa1-6c06-41b1-b539-6c346269c61d","Хенераль-Гуэмес","-24.666622","-65.049968","19828"
"486928e4-a629-4d3b-a2f2-e05b15f106eb","Транкас","-26.216657","-65.283313","1599"
"bc92df75-580b-41eb-883e-b74ad942ad9a","Саэнс Пенья","-26.790007","-60.450016","81879"
"00900955-231d-4c52-b039-78767aa66f61","Пампа-дель-Инферно","-26.516587","-61.166587","2921"
"19ac97ef-5599-4b87-a5b7-de1eb2984c59","Вилья-Анхела","-27.583292","-60.716666","30051"
"ff965a08-492c-434b-a265-020eddb65583","Инхеньеро-Хуарес","-23.900002","-61.849982","6453"
"27bce6c4-1133-4202-863d-0c02b711d831","Команданте-Фонтана","-25.3333","-59.683319","4277"
"dfef9774-fee8-4ef9-9520-9af57f1a23c4","Доктор-Педро-П.-Пенья","-22.479986","-62.299981","6143"
"2eae2a2a-bf94-4dbb-b8eb-ee153bfa2016","Сан-Лоренцо","-28.120003","-58.769989","47626"
"1394cc99-b57c-4d29-9ceb-f715c085e144","Корриентес","-27.489964","-58.809987","340823"
"1c005c9d-6a90-46cf-9cdc-6354cc3b8fb7","Консепсьон-дель-Уругвай","-32.479996","-58.239996","67895"
"b1746a2b-4d51-4c5f-9a18-c4e1fe9ab481","Виктория","-32.610013","-60.179981","25139"
"b1887db6-5b4f-4fd7-a381-8a95949eb66f","Гуалегуай","-33.150032","-59.340006","33120"
"063a404a-393e-46aa-92d6-1a7f18fe5755","Парана","-31.733323","-60.533344","262295"
"82ebbaa6-f1a5-48d3-b441-13d6422db184","Вилья-Конститусьон","-33.230027","-60.350022","44271"
"2cd44cbf-e4bb-4968-be61-160e2d9a38b3","Рафаэла","-31.250045","-61.499978","88713"
"4a5905c4-8281-4477-a72e-e6cc955a8a58","Санту-Андре","-23.652834","-46.527817","662373"
"a07a3c3b-8b01-4e41-a72c-65958166d775","Пиндамоньянгаба","-22.919959","-45.470026","132218"
"7e432dbf-d518-46f6-a670-dff66c3a5350","Риу-Клару","-22.409964","-47.560028","180147"
"acbaadc7-85d5-458e-b8b6-10f8429fc9f6","Ориньюс","-22.970033","-49.86999","97799"
"08395e7d-d37d-4b0f-a839-be9ff62c2b9b","Итаньяэн","-24.179985","-46.800022","90385"
"36fbaab8-3d8a-40cc-a72d-f940a3a4a741","Жаботикабал","-21.250035","-48.329981","69394"
"75199ab6-90db-481f-ada2-824718ca0e2d","Браганса-Паулиста","-22.950035","-46.549986","127676"
"b8678e99-3567-4fb7-a70e-752d625627d4","Жундиаи","-23.199994","-46.879992","505548"
"c3474217-adef-4ba7-bb9a-a56986f0b770","Сан-Жозе-дус-Кампус","-23.199994","-45.879949","753769"
"7e0d438b-4562-4468-9d46-a4e388bd1738","Гуаратингета","-22.819965","-45.189991","203580"
"58ebbc13-a3a0-49fb-b6a8-75f4f9cd3c9c","Пирасунунга","-21.990042","-47.429984","60413"
"1adee4e0-684a-48c8-8d49-1ae28392c401","Американа","-22.749943","-47.32999","479472"
"71bed9cc-f134-49ed-af04-bb4e2e2e56c0","Пирасикаба","-22.709998","-47.639997","342209"
"8c7416f6-1b67-46b2-b4a0-49ad90ce52d5","Сан-Жуан-да-Боа-Виста","-21.980016","-46.789997","76540"
"453a5c6a-3c73-498c-8f65-9681b0d050fc","Сан-Карлус","-22.020014","-47.889982","205035"
"cdf3381b-0254-4d28-aea3-858e32e04c35","Тупан","-21.929994","-50.51995","62035"
"8296a31a-ab75-4d05-ac44-56eb4cc727cf","Пенаполис","-21.410025","-50.080003","54477"
"8621d95b-9ec8-4f45-9da5-46960e9d4742","Президенти-Пруденти","-22.120008","-51.39","209502"
"6135d188-4b2b-4f40-9dcc-481db3eeec44","Режистру","-24.490044","-47.839985","53273"
"a9c61a90-b773-4c7c-b787-4c58a649ce45","Татуи","-23.35001","-47.860009","93580"
"fa4c80a2-5025-4822-867e-1cc1d12777be","Аваре","-23.110025","-48.930021","81285"
"a7c26d6f-2f92-47b5-bf73-7e585c4cbe0b","Гарса","-22.220002","-49.659977","41302"
"756e4bc8-f1d4-4e68-8ee9-418d46a534ab","Катандува","-21.140016","-48.979967","109612"
"14078433-bcf2-4dd0-924b-d353c1d26a1e","Бататайс","-20.890005","-47.59","51976"
"f2f05924-4042-4f86-bcfe-f994403aaa12","Барретус","-20.550026","-48.580017","101220"
"948322fc-7c01-4c38-849d-de7f0095c1b1","Марилия","-22.210028","-49.950011","212218"
"22a2e07c-326e-40eb-9093-4beaf45b7054","Иту","-23.260042","-47.300018","320170"
"070a7422-7c94-4a3b-a4a8-7f207901dcb6","Итапетининга","-23.589996","-48.039998","126243"
"210701be-c0f8-44bf-b022-214c1731e969","Эльдорадо","-26.200017","-54.599985","17365"
"f476bf0c-55ee-4e09-9226-05efa1495637","Жабоатан-дус-Гуарарапис","-8.11001","-35.020044","702621"
"83d42c0f-94dd-4d51-b0cf-9a5364487335","Олинда","-7.999991","-34.849951","921840"
"b506644c-fd4c-42b5-8259-4988465e1c12","Кабу-ди-Санту-Агостинью","-8.289999","-35.029991","146219"
"cf64a116-d4dd-4bec-b4b1-e66e175ff654","Карпина","-7.840001","-35.260003","165579"
"edf5391e-af51-438d-899a-ed4c2a1f4523","Арковерди","-8.420017","-37.069996","57163"
"b910ae9e-f537-4edb-a159-c1f77dda1139","Дангрига","16.970035","-88.22","10750"
"82303b1d-6891-4723-8c14-7ee80fb65454","Влёра","40.47736","19.498231","89546"
"abb3e143-a344-4ff5-935c-a63ed63c40d3","Эльбасан","41.121507","20.083828","165010"
"9980be43-1f70-439d-8e2a-4c4d4185fcca","Гюмри","40.789434","43.847494","148381"
"96ca9dc6-2573-445d-b1d0-16d36186868f","Гент","51.029998","3.700022","444336"
"a68b6201-2613-4e68-b6e8-8302fd268c3f","Ванадзор","40.812766","44.488282","101098"
"c27d0d69-b714-46d5-8b10-7fae1e38d13d","Гянджа","40.684996","46.350028","303268"
"114486a5-7ac8-49dd-ac16-de8793108ef1","Евлах","40.617197","47.150031","53716"
"3491d769-79b9-4ef0-9307-0c36c6a4229a","Сумгайыт","40.580015","49.629983","279159"
"1c09655a-6579-4528-b23c-8e30d354976b","Карух","34.48677","62.591776","17484"
"7de22c79-03a1-4f0a-b16d-5ce4f18e443a","Шибарган","36.657981","65.738302","93241"
"83378dac-f1ef-4e0a-b7ce-10ced1fcab8a","Пули-Хумри","35.951073","68.701119","56369"
"70c29425-6469-438d-85b2-c4709cbb1b6f","Тангайл","24.249979","89.920031","180144"
"e20ac34a-541d-4c6a-b69c-cf36185eb269","Сика-Сика","-17.330016","-67.729985","1006"
"0e6cedb9-be11-4904-8155-f4ecab1594d9","Рурренабаке","-14.46001","-67.559995","11749"
"53bd4909-830b-4a5c-9bfc-2689e4f4330d","Сората","-15.790007","-68.660057","2190"
"e8e253e9-8909-46cc-8f57-653fda018b3f","Ачакачи","-16.083322","-68.666569","8447"
"da0463f8-f7d3-47af-a536-ab7cf2cbf793","Вьяча","-16.650006","-68.29995","34776"
"6c689f6b-56ef-4a58-a589-2f82dc00b93c","Киме","-16.980011","-67.220016","4045"
"f192c402-704d-4410-9a4c-2be9b564e7f2","Льяльягуа","-18.420027","-66.64","28069"
"6b9c3fb9-724d-4537-a6c1-a6064841cfcb","Унсия","-18.469998","-66.57003","4723"
"3b7dcbe9-8dbe-420c-b050-d55cf8658de2","Уюни","-20.460006","-66.829988","12939"
"cb8924df-0aec-4f28-a9b3-134450af70ce","Вилья-Мартин","-20.76655","-67.783341","10"
"6bec99e9-f89e-4020-9b4b-767d641a359d","Бетансос","-19.559957","-65.450021","4847"
"ef7f7ed6-4dc2-4f30-82f4-d57eb8af5332","Портачуэло","-17.36004","-63.400017","11485"
"c94c1bc0-7f07-465b-b74f-f0516d3b3395","Самайпата","-18.180042","-63.77002","2926"
"33fbf475-0ff9-44c2-9f8e-45260f22f5ee","Куэво","-20.450032","-63.529983","953"
"d3c91d2e-46af-4155-87c4-93f3efd89866","Сан-Карлос","-17.399986","-63.729997","6353"
"c637c82a-aeee-4700-9b9f-6c840b2d8845","Сан-Лоренсо","-21.479943","-64.770011","3000"
"0be72cf4-e273-4017-a93d-0ada6a06a9e3","Этре-Риос","-21.530018","-64.189994","2685"
